<LandmarkLocation instanceId="{251A8B42-26A3-4281-AFE7-6345B41A39A0}" type="POI" name="Village: Akrar" owner="3DSpotters" lat="61.455746" lon="-6.7590335" alt="88.2"/> 
<LandmarkLocation instanceId="{E6DD3DA1-0290-40D3-A153-1546810FB42E}" type="POI" name="Village: Árnafjørður" owner="3DSpotters" lat="62.2551299" lon="-6.5355749" alt="119.7"/> 
<LandmarkLocation instanceId="{9DB799BE-71CB-4219-AE17-DD24BFC60741}" type="POI" name="Village: Bøur" owner="3DSpotters" lat="62.0863166" lon="-7.3696034" alt="124.95"/> 
<LandmarkLocation instanceId="{5DF891EF-1994-4E6A-8D2D-178A444E1972}" type="POI" name="Village: Dalur" owner="3DSpotters" lat="61.7843221" lon="-6.6785038" alt="136.5"/> 
<LandmarkLocation instanceId="{5BEE68DA-5FC5-416B-BE81-E0AF90EBDD18}" type="POI" name="Village: Depil" owner="3DSpotters" lat="62.2866388" lon="-6.5299448" alt="77.7"/> 
<LandmarkLocation instanceId="{6C63F4B6-DDE8-45A2-B59A-E13A6BDB3C9E}" type="POI" name="Village: Dímun" owner="3DSpotters" lat="61.6849993" lon="-6.7558718" alt="135.45"/> 
<LandmarkLocation instanceId="{012D7C93-0CA3-4C1F-9903-FDBBF3098666}" type="POI" name="Village: Eiði" owner="3DSpotters" lat="62.3004264" lon="-7.0894368" alt="112.35"/> 
<LandmarkLocation instanceId="{0289606B-2250-41FC-A381-B69EA6AD28CC}" type="POI" name="Village: Elduvík" owner="3DSpotters" lat="62.2821358" lon="-6.9116848" alt="128.1"/> 
<LandmarkLocation instanceId="{7CF6B025-6E78-41EF-8BDC-66677445A89F}" type="POI" name="Village: Fámjin" owner="3DSpotters" lat="61.524861" lon="-6.8786368" alt="73.5"/> 
<LandmarkLocation instanceId="{E4A7E6C0-E12C-4432-AD24-37DE21C9EB20}" type="POI" name="Village: Froðba" owner="3DSpotters" lat="61.547" lon="-6.771" alt="80.85"/> 
<LandmarkLocation instanceId="{4EBB1517-06BA-40E4-82AA-036BA45BA92C}" type="POI" name="Village: Fuglafjørður" owner="3DSpotters" lat="62.2430836" lon="-6.8178206" alt="78.75"/> 
<LandmarkLocation instanceId="{9B9B940D-0B58-4AE4-90DE-DB55E1084DEC}" type="POI" name="Village: Funningsfjørður" owner="3DSpotters" lat="62.238104" lon="-6.9316051" alt="106.05"/> 
<LandmarkLocation instanceId="{DD7E7D3E-222A-4C92-BE0E-37127AA393A4}" type="POI" name="Village: Funningur" owner="3DSpotters" lat="62.2869174" lon="-6.9679178" alt="101.85"/> 
<LandmarkLocation instanceId="{FBCF92CD-C311-453E-9D24-5006B58388EC}" type="POI" name="Village: Gásadalur" owner="3DSpotters" lat="62.110355" lon="-7.4379717" alt="128.1"/> 
<LandmarkLocation instanceId="{F1788D28-CD96-456F-BAEC-8DB3FC0AAC03}" type="POI" name="Village: Glyvrar" owner="3DSpotters" lat="62.1286148" lon="-6.7240735" alt="109.2"/> 
<LandmarkLocation instanceId="{F24E4ED4-64A8-4FDE-BB1F-6B739FFF2820}" type="POI" name="Village: Gjógv" owner="3DSpotters" lat="62.3248617" lon="-6.9482437" alt="106.05"/> 
<LandmarkLocation instanceId="{CF8D873A-6054-4EF5-93E5-092FB66E74D2}" type="POI" name="Village: Gøtugjógv" owner="3DSpotters" lat="62.1918816" lon="-6.7487103" alt="121.8"/> 
<LandmarkLocation instanceId="{C3A12DDD-64F2-4C79-A257-AAFF0828DE2D}" type="POI" name="Village: Gøtueiði" owner="3DSpotters" lat="62.1753702" lon="-6.7752761" alt="133.35"/> 
<LandmarkLocation instanceId="{981D129F-2861-43A2-AF64-3213E1CBFC5D}" type="POI" name="Village: Haraldssund" owner="3DSpotters" lat="62.270646" lon="-6.6036466" alt="124.95"/> 
<LandmarkLocation instanceId="{5CF70753-4CB8-4248-918E-84D82FB6DCFE}" type="POI" name="Village: Haldórsvík" owner="3DSpotters" lat="62.2754532" lon="-7.0934698" alt="105.0"/> 
<LandmarkLocation instanceId="{628D7CC6-86A7-4F17-BD59-04308DE10B52}" type="POI" name="Village: Hellurnar" owner="3DSpotters" lat="62.263" lon="-6.844" alt="112.35"/> 
<LandmarkLocation instanceId="{52120357-D423-4FE7-AF4C-D6C946E0FF7A}" type="POI" name="Village: Hattarvík" owner="3DSpotters" lat="62.3294992" lon="-6.2750044" alt="118.65"/> 
<LandmarkLocation instanceId="{1E0F3717-5F5B-4909-861D-522BEC43815B}" type="POI" name="Village: Hósvík" owner="3DSpotters" lat="62.1514776" lon="-6.9467985" alt="96.6"/> 
<LandmarkLocation instanceId="{0E6A27E7-0138-4FA6-914C-869C427208E7}" type="POI" name="Village: Hestur" owner="3DSpotters" lat="61.9558309" lon="-6.8829483" alt="121.8"/> 
<LandmarkLocation instanceId="{5FA594D9-ACB5-48DB-A438-DF8326FD55AF}" type="POI" name="Village: Hov" owner="3DSpotters" lat="61.5067716" lon="-6.7623644" alt="121.8"/> 
<LandmarkLocation instanceId="{51D69B1F-A16C-4C56-A0B0-F613374EA15E}" type="POI" name="Village: Húsavík" owner="3DSpotters" lat="61.8096495" lon="-6.6794956" alt="113.4"/> 
<LandmarkLocation instanceId="{1C6475C4-C402-4A32-94FD-4722755987C0}" type="POI" name="Village: Húsar" owner="3DSpotters" lat="62.2649365" lon="-6.6962228" alt="98.7"/> 
<LandmarkLocation instanceId="{7340AB3B-1812-4DD9-BB20-0D314A1D6071}" type="POI" name="Village: Hvalvík" owner="3DSpotters" lat="62.1871139" lon="-7.0354349" alt="122.85"/> 
<LandmarkLocation instanceId="{AAA6E4E5-E5F0-49AE-9A6F-84BB23F9D6A5}" type="POI" name="Village: Hvalba" owner="3DSpotters" lat="61.6003139" lon="-6.9585472" alt="97.65"/> 
<LandmarkLocation instanceId="{01B29A9B-CB2E-4523-9F24-1FF9440469DD}" type="POI" name="Village: Innan Glyvur" owner="3DSpotters" lat="62.1366229" lon="-6.7595184" alt="105.0"/> 
<LandmarkLocation instanceId="{129B532B-054F-4931-9258-F4BCEC983C3D}" type="POI" name="Village: Kaldbak" owner="3DSpotters" lat="62.0610657" lon="-6.8287134" alt="113.4"/> 
<LandmarkLocation instanceId="{F3F7BBD3-F93C-4907-8E4A-0C1C3EDA4447}" type="POI" name="Village: Hvannasund" owner="3DSpotters" lat="62.29727" lon="-6.5196605" alt="105.0"/> 
<LandmarkLocation instanceId="{D77D9531-0DBD-47EF-91F7-C93D2E1F6101}" type="POI" name="Village: Hvítanes" owner="3DSpotters" lat="62.0445949" lon="-6.7726333" alt="106.05"/> 
<LandmarkLocation instanceId="{4746C718-05D2-4003-AB33-046969BBDE0F}" type="POI" name="Village: Kirkjubøur" owner="3DSpotters" lat="61.9526502" lon="-6.7942333" alt="111.3"/> 
<LandmarkLocation instanceId="{080671A6-06A1-4F4E-A4BF-576BC50E0520}" type="POI" name="Village: Klaksvík" owner="3DSpotters" lat="62.2266084" lon="-6.5852705" alt="94.5"/> 
<LandmarkLocation instanceId="{67D380AF-5FA5-447A-9234-09D1D28884F0}" type="POI" name="Village: Kaldbaksbotnur" owner="3DSpotters" lat="62.0654423" lon="-6.9126848" alt="110.25"/> 
<LandmarkLocation instanceId="{4A1BCFAC-6437-44BF-84E1-A851C3ABED9A}" type="POI" name="Village: Kirkja" owner="3DSpotters" lat="62.3182463" lon="-6.316458" alt="119.7"/> 
<LandmarkLocation instanceId="{FAD8C49C-EBB3-4E8C-B0DD-6F867E58AC0D}" type="POI" name="Village: Kunoy" owner="3DSpotters" lat="62.2917787" lon="-6.6687901" alt="110.25"/> 
<LandmarkLocation instanceId="{6780725D-6C7C-4CFB-804D-9CAB4B99AB1D}" type="POI" name="Village: Kvívík" owner="3DSpotters" lat="62.1170951" lon="-7.0745199" alt="128.1"/> 
<LandmarkLocation instanceId="{788E044A-A2EF-4FD7-ACBF-6DD0FECE1488}" type="POI" name="Village: Kollafjørður" owner="3DSpotters" lat="62.1177429" lon="-6.9005919" alt="88.2"/> 
<LandmarkLocation instanceId="{F63513D7-FA4A-4FDF-B1AE-8592B8B7FA4E}" type="POI" name="Village: Koltur" owner="3DSpotters" lat="61.985698" lon="-6.9670542" alt="120.75"/> 
<LandmarkLocation instanceId="{C54C5D6B-87B9-4E00-A6AF-F6F37571C7DC}" type="POI" name="Village: Leirvík" owner="3DSpotters" lat="62.2095775" lon="-6.7077974" alt="114.45"/> 
<LandmarkLocation instanceId="{E84258D1-4736-47DC-A53B-E044A84D0A0A}" type="POI" name="Village: Leynar" owner="3DSpotters" lat="62.1170151" lon="-7.0424071" alt="101.85"/> 
<LandmarkLocation instanceId="{97602B52-EEB0-4F4A-9E2F-D8D350FC117F}" type="POI" name="Village: Lamba" owner="3DSpotters" lat="62.1417232" lon="-6.711869" alt="107.1"/> 
<LandmarkLocation instanceId="{0B53BFF0-0AA0-4DF1-8CFA-F021771C8728}" type="POI" name="Village: Langasandur" owner="3DSpotters" lat="62.2315748" lon="-7.0486274" alt="96.6"/> 
<LandmarkLocation instanceId="{C93576A1-2EAC-487A-9D95-239A8380882F}" type="POI" name="Village: Mikladalur" owner="3DSpotters" lat="62.335" lon="-6.766" alt="121.8"/> 
<LandmarkLocation instanceId="{BEBA2A77-80D2-447E-8C3A-FAC04703C0A3}" type="POI" name="Village: Miðvágur" owner="3DSpotters" lat="62.0491394" lon="-7.189202" alt="132.3"/> 
<LandmarkLocation instanceId="{41FE99B8-088A-4002-ABDB-CAA318F49780}" type="POI" name="Village: Lopra" owner="3DSpotters" lat="61.4435538" lon="-6.7710111" alt="89.25"/> 
<LandmarkLocation instanceId="{0C8D91AF-7C5B-4C99-82F2-BC8FC73FE9B1}" type="POI" name="Village: Ljósá" owner="3DSpotters" lat="62.2674624" lon="-7.0617676" alt="132.3"/> 
<LandmarkLocation instanceId="{F0680875-E815-4008-AB9E-81D6D94352F2}" type="POI" name="Village: Nes" owner="3DSpotters" lat="62.0811545" lon="-6.7294839" alt="134.4"/> 
<LandmarkLocation instanceId="{463EAA8D-B80D-48D0-A0BB-579D1AABE232}" type="POI" name="Village: Oyri" owner="3DSpotters" lat="62.1910124" lon="-6.9864143" alt="127.05"/> 
<LandmarkLocation instanceId="{7F0FFAA8-8505-4F2F-A4D8-AE3C561148EE}" type="POI" name="Village: Oyndarfjørður" owner="3DSpotters" lat="62.2769219" lon="-6.8540178" alt="124.95"/> 
<LandmarkLocation instanceId="{CAF05D8B-6205-451D-98E5-6CCB7B072C63}" type="POI" name="Village: Norðragøta" owner="3DSpotters" lat="62.1985237" lon="-6.7401847" alt="113.4"/> 
<LandmarkLocation instanceId="{379D7C68-4099-41ED-9323-2D3301F832EA}" type="POI" name="Village: Norðoyri" owner="3DSpotters" lat="62.2123327" lon="-6.5411128" alt="121.8"/> 
<LandmarkLocation instanceId="{2DD93526-4A94-4AF2-B884-5FAA3BFCC05A}" type="POI" name="Village: Runavík" owner="3DSpotters" lat="62.1075979" lon="-6.7210814" alt="123.9"/> 
<LandmarkLocation instanceId="{44EAB0A2-4272-4D4F-AED1-710E8C70E647}" type="POI" name="Village: Rituvík" owner="3DSpotters" lat="62.1073947" lon="-6.6841672" alt="100.8"/> 
<LandmarkLocation instanceId="{1B59C647-EF88-4DCA-91D6-5C5BAEC7367C}" type="POI" name="Village: Porkeri" owner="3DSpotters" lat="61.4817399" lon="-6.7454998" alt="123.9"/> 
<LandmarkLocation instanceId="{7317141C-5A1E-4385-8FE7-A7BF90CA6CF0}" type="POI" name="Village: Sandvík" owner="3DSpotters" lat="61.632964" lon="-6.9289986" alt="133.35"/> 
<LandmarkLocation instanceId="{499D235B-E645-4514-8D27-CD2068D6BC38}" type="POI" name="Village: Selatrað" owner="3DSpotters" lat="62.159" lon="-6.878" alt="127.05"/> 
<LandmarkLocation instanceId="{F307BB34-7736-4180-837B-E58C6DBD4CBE}" type="POI" name="Village: Skálabotnur" owner="3DSpotters" lat="62.1939598" lon="-6.8540808" alt="120.75"/> 
<LandmarkLocation instanceId="{71105F7F-0E5D-45F5-90B6-49B02491D2F4}" type="POI" name="Village: Skálavík" owner="3DSpotters" lat="61.8297213" lon="-6.6658461" alt="127.05"/> 
<LandmarkLocation instanceId="{49B6F20D-C9D1-4EA7-BDAF-DD2F959042FB}" type="POI" name="Village: Saltangará" owner="3DSpotters" lat="62.1169179" lon="-6.7188176" alt="99.75"/> 
<LandmarkLocation instanceId="{23C854A9-804A-4BC2-B76C-09DA123D4D9F}" type="POI" name="Village: Saltnes" owner="3DSpotters" lat="62.1089748" lon="-6.7425141" alt="117.6"/> 
<LandmarkLocation instanceId="{D23CF552-5538-49E2-B91C-A468BC1FA076}" type="POI" name="Village: Sandavágur" owner="3DSpotters" lat="62.0539859" lon="-7.1525739" alt="112.35"/> 
<LandmarkLocation instanceId="{7E0BCB65-37B2-403A-9F6D-AB4CC5A4A3FC}" type="POI" name="Village: Sandur" owner="3DSpotters" lat="61.8348155" lon="-6.8175826" alt="91.35"/> 
<LandmarkLocation instanceId="{F82423B9-3F47-4C54-A3C9-791831C29F88}" type="POI" name="Village: Skúvoy" owner="3DSpotters" lat="61.7706823" lon="-6.8066251" alt="131.25"/> 
<LandmarkLocation instanceId="{93975A4F-FCFC-4D62-91CF-7D288AAB5E80}" type="POI" name="Village: Skælingur" owner="3DSpotters" lat="62.095984" lon="-7.0082285" alt="113.4"/> 
<LandmarkLocation instanceId="{DBAF57E5-F87B-4542-AB0D-B8894745DFE5}" type="POI" name="Village: Strendur" owner="3DSpotters" lat="62.1076322" lon="-6.7655783" alt="75.6"/> 
<LandmarkLocation instanceId="{1DC9B308-6683-43C5-8C75-0FEFD566AC6D}" type="POI" name="Village: Streymnes" owner="3DSpotters" lat="62.1914142" lon="-7.0316394" alt="100.8"/> 
<LandmarkLocation instanceId="{6F7E34F9-6E4B-4D9D-B4C1-94B67E7BE934}" type="POI" name="Village: Skála" owner="3DSpotters" lat="62.1574049" lon="-6.7816595" alt="113.4"/> 
<LandmarkLocation instanceId="{66201C1B-B840-436D-AB1F-5415FCE293FA}" type="POI" name="Village: Skarvanes" owner="3DSpotters" lat="61.7936323" lon="-6.7475006" alt="75.6"/> 
<LandmarkLocation instanceId="{F4F0B1D2-2A34-42CD-B44F-B021C4555031}" type="POI" name="Village: Skipanes" owner="3DSpotters" lat="62.1732721" lon="-6.7704674" alt="91.35"/> 
<LandmarkLocation instanceId="{6BDDAB21-0162-4E97-BFF2-1696B8D57744}" type="POI" name="Village: Skopun" owner="3DSpotters" lat="61.9037828" lon="-6.8866676" alt="135.45"/> 
<LandmarkLocation instanceId="{E2108776-0464-467A-ABCB-18D2FCE796BA}" type="POI" name="Village: Syðradalur" owner="3DSpotters" lat="62.2452238" lon="-6.6672734" alt="100.8"/> 
<LandmarkLocation instanceId="{4F8DD8D7-CA8C-4579-81E3-2EAE6F6D499A}" type="POI" name="Village: Svínoy" owner="3DSpotters" lat="62.2781765" lon="-6.3421026" alt="123.9"/> 
<LandmarkLocation instanceId="{4FB96DB4-AAB3-4FB1-9123-596BA28C2E8D}" type="POI" name="Village: Syðrugøta" owner="3DSpotters" lat="62.1861301" lon="-6.7542366" alt="91.35"/> 
<LandmarkLocation instanceId="{1E5F4C45-4845-40AA-81EB-89D102E87E27}" type="POI" name="Village: Syðradalur" owner="3DSpotters" lat="62.0187017" lon="-6.9123819" alt="94.5"/> 
<LandmarkLocation instanceId="{194FF6B3-7C5B-433C-87E9-9191A25FC13D}" type="POI" name="Village: Sumba" owner="3DSpotters" lat="61.4039284" lon="-6.7133445" alt="91.35"/> 
<LandmarkLocation instanceId="{C35EEC00-9A14-4F34-B9A1-DDFC3FC9EE93}" type="POI" name="Village: Stykkið" owner="3DSpotters" lat="62.1154894" lon="-7.0512945" alt="107.1"/> 
<LandmarkLocation instanceId="{2AF9C919-9ED8-47DF-9C1B-4B92BA22B9AB}" type="POI" name="Village: Svínáir" owner="3DSpotters" lat="62.2297533" lon="-7.0257339" alt="90.3"/> 
<LandmarkLocation instanceId="{326840B7-3BB4-45DF-A126-EBF1D0FF8E98}" type="POI" name="Village: Sund" owner="3DSpotters" lat="62.049116" lon="-6.8460495" alt="90.3"/> 
<LandmarkLocation instanceId="{ED40111D-4307-45E3-B84A-93DD67FB5E63}" type="POI" name="Village: Trongisvágur" owner="3DSpotters" lat="61.564" lon="-6.844" alt="86.1"/> 
<LandmarkLocation instanceId="{2B2FAD11-D718-490F-87AD-789B7DB64FB2}" type="POI" name="Town: Tórshavn" owner="3DSpotters" lat="62.012" lon="-6.768" alt="129.78"/> 
<LandmarkLocation instanceId="{9A49C6C3-6E7A-431D-AA1C-A8EDF8C390D6}" type="POI" name="Village: Tvøroyri" owner="3DSpotters" lat="61.556" lon="-6.803" alt="127.05"/> 
<LandmarkLocation instanceId="{DE654479-128A-4606-B396-B11A50100467}" type="POI" name="Village: Trøllanes" owner="3DSpotters" lat="62.3612244" lon="-6.7888073" alt="92.4"/> 
<LandmarkLocation instanceId="{5DF45F36-9906-43BA-A954-A786DFA33AAE}" type="POI" name="Village: Sørvágur" owner="3DSpotters" lat="62.0716758" lon="-7.309821" alt="116.55"/> 
<LandmarkLocation instanceId="{CEF820AF-DE14-4006-8E48-30A4A4FADE88}" type="POI" name="Village: Søldarfjørður" owner="3DSpotters" lat="62.1600626" lon="-6.7539129" alt="109.2"/> 
<LandmarkLocation instanceId="{108EDD25-15DB-4BB6-8325-C8CF77A65734}" type="POI" name="Village: Toftir" owner="3DSpotters" lat="62.0916048" lon="-6.7378886" alt="99.75"/> 
<LandmarkLocation instanceId="{B887D97F-0388-45F1-882E-890471C6BE9A}" type="POI" name="Village: Tjørnuvík" owner="3DSpotters" lat="62.2889614" lon="-7.1487437" alt="101.85"/> 
<LandmarkLocation instanceId="{F8CE4921-7DE5-47F2-8F94-EA44CC11DDF1}" type="POI" name="Village: Æðuvík" owner="3DSpotters" lat="62.0693467" lon="-6.6939053" alt="81.9"/> 
<LandmarkLocation instanceId="{EFE65C54-FA21-4EE3-820B-1FDFB0F3E7CD}" type="POI" name="Village: Ørðavík" owner="3DSpotters" lat="61.5338099" lon="-6.8134958" alt="123.9"/> 
<LandmarkLocation instanceId="{2223812B-B97E-464A-AE1F-DB459E8BABC3}" type="POI" name="Village: Viðareiði" owner="3DSpotters" lat="62.36" lon="-6.533" alt="124.95"/> 
<LandmarkLocation instanceId="{BC397A18-6519-406F-86EC-74E128912AEB}" type="POI" name="Village: Víkarbyrgi" owner="3DSpotters" lat="61.4423185" lon="-6.7255895" alt="112.35"/> 
<LandmarkLocation instanceId="{FE5A0EA4-6D03-42DE-9A8C-69FDACC7D83E}" type="POI" name="Village: Velbastaður" owner="3DSpotters" lat="61.9830528" lon="-6.8540795" alt="126.0"/> 
<LandmarkLocation instanceId="{64E82C7A-5046-4BF4-AA8D-C9C6A611D970}" type="POI" name="Village: Vestmanna" owner="3DSpotters" lat="62.156" lon="-7.166" alt="127.05"/> 
<LandmarkLocation instanceId="{10889E8E-F743-4A85-B85C-B88431DD998C}" type="POI" name="Village: Vágur" owner="3DSpotters" lat="61.4747101" lon="-6.8071921" alt="100.8"/> 
<LandmarkLocation instanceId="{D3AEA4A0-E65F-41B6-A1E6-4C039470BCE7}" type="POI" name="Village: Vatnsoyrar" owner="3DSpotters" lat="62.074" lon="-7.248" alt="110.25"/> 
<LandmarkLocation instanceId="{01146E23-B533-4E1D-BB3A-896594710F74}" type="POI" name="Hotel: Bládýpi" owner="3DSpotters" lat="62.0102776" lon="-6.7761323" alt="67.9"/> 
<LandmarkLocation instanceId="{5BDC0B7B-EB7F-4537-85A4-B6362263B609}" type="POI" name="Hotel: Hotel Hafnia" owner="3DSpotters" lat="62.0099546" lon="-6.7709563" alt="84.7"/> 
<LandmarkLocation instanceId="{8BE978E2-9CE6-4426-B434-3413988B1BEF}" type="POI" name="Peak: Uppi á Manni" owner="3DSpotters" lat="61.9868986" lon="-6.6454694" alt="134.4"/> 
<LandmarkLocation instanceId="{3C035A2B-A622-4C85-B064-9871D5FA5104}" type="POI" name="Peak: Slættafelli" owner="3DSpotters" lat="62.150567" lon="-6.825833" alt="121.8"/> 
<LandmarkLocation instanceId="{EA9AB1CB-DFA6-49F2-9ECE-E906AB0A9BA4}" type="POI" name="Peak: Skælingsfjall" owner="3DSpotters" lat="62.0890078" lon="-6.9854268" alt="78.75"/> 
<LandmarkLocation instanceId="{5287A9DA-3CC5-4B61-91CE-EA36AFD7BBFA}" type="POI" name="Peak: Reynsatindur" owner="3DSpotters" lat="62.0820369" lon="-7.187847" alt="108.15"/> 
<LandmarkLocation instanceId="{109D2419-2EA1-4F66-B6C5-CAFB6BB7E43D}" type="POI" name="Village: Víkar" owner="3DSpotters" lat="62.1265719" lon="-7.3793823" alt="111.3"/> 
<LandmarkLocation instanceId="{5531643B-0380-49AB-9B89-AF0CE5BD0E8C}" type="POI" name="Peak: Vørðuklettar" owner="3DSpotters" lat="62.0499973" lon="-7.2166676" alt="133.35"/> 
<LandmarkLocation instanceId="{5CECF5C6-DBD9-4F7B-8F76-E761F56C1F6B}" type="POI" name="Peak: Sundsnøva" owner="3DSpotters" lat="62.071341" lon="-7.4059406" alt="73.5"/> 
<LandmarkLocation instanceId="{FB47B2D5-CF2B-4975-99E4-AF11A92C6065}" type="POI" name="Peak: Skálafjall" owner="3DSpotters" lat="62.2094769" lon="-6.8921918" alt="123.9"/> 
<LandmarkLocation instanceId="{A0B315B4-CE97-4E1C-AFA2-B6A3D11C8EC8}" type="POI" name="Peak: Skálafjall" owner="3DSpotters" lat="61.619815" lon="-6.9521156" alt="128.1"/> 
<LandmarkLocation instanceId="{35936121-2250-46FE-A1C4-AB3AD5A42C64}" type="POI" name="Village: Lambareiði" owner="3DSpotters" lat="62.1393189" lon="-6.730604" alt="99.75"/> 
<LandmarkLocation instanceId="{48A9637D-6149-47D5-AF88-781981B40D7A}" type="POI" name="Peak: Grímsfjall" owner="3DSpotters" lat="61.597482" lon="-6.9819218" alt="120.75"/> 
<LandmarkLocation instanceId="{662DF963-5D1F-4540-82B6-6F1D0F7DAD4A}" type="POI" name="Peak: Byttufelli" owner="3DSpotters" lat="62.3145464" lon="-6.7566691" alt="126.0"/> 
<LandmarkLocation instanceId="{5EB7D84A-4724-4AAB-9062-D5990CA9DE4A}" type="POI" name="Peak: Glopprók" owner="3DSpotters" lat="61.5045002" lon="-6.8741822" alt="130.2"/> 
<LandmarkLocation instanceId="{72337DA4-6969-4AB7-B88F-CDBBC6F1AFC7}" type="POI" name="River: Gjógvará" owner="3DSpotters" lat="62.1492493" lon="-6.8505843" alt="58.1"/> 
<LandmarkLocation instanceId="{7EFFD7CD-4EEF-4386-8B2B-62CF250A7A58}" type="POI" name="Peak: Høgaleiti" owner="3DSpotters" lat="62.118117" lon="-6.705917" alt="127.05"/> 
<LandmarkLocation instanceId="{2842B38C-5A0F-4AD8-A8C2-B108E8C4FD4A}" type="POI" name="River: Blásendi" owner="3DSpotters" lat="62.15" lon="-6.9" alt="81.9"/> 
<LandmarkLocation instanceId="{F5DF000E-B104-4D6D-A34D-295FEA586E44}" type="POI" name="Peak: Bøllufjall" owner="3DSpotters" lat="61.8550312" lon="-6.871888" alt="92.4"/> 
<LandmarkLocation instanceId="{F4521FB1-8E97-4B63-86B9-24B12B7A28B1}" type="POI" name="Peak: Knúkin" owner="3DSpotters" lat="61.4162041" lon="-6.7085321" alt="124.95"/> 
<LandmarkLocation instanceId="{D48974E1-BEEC-4A0D-8B37-A0E6DDC6BBAE}" type="POI" name="Peak: Havnartindur" owner="3DSpotters" lat="62.2742452" lon="-6.395335" alt="103.95"/> 
<LandmarkLocation instanceId="{1A4D9B80-31FF-48D4-82C2-3834C8EA8942}" type="POI" name="Village: Nes" owner="3DSpotters" lat="61.4718123" lon="-6.762029" alt="92.4"/> 
<LandmarkLocation instanceId="{0ACFE747-69AC-4835-AAE5-58BB120DBD85}" type="POI" name="Peak: Bolafløttur" owner="3DSpotters" lat="62.0563869" lon="-7.354437" alt="116.55"/> 
<LandmarkLocation instanceId="{F52C77CF-1ADF-4CC6-8D15-67A16BA35DAD}" type="POI" name="Peak: Kirviskollur" owner="3DSpotters" lat="61.4382484" lon="-6.7825005" alt="133.35"/> 
<LandmarkLocation instanceId="{FD1FEFFB-177E-4CD3-8573-33ED6F0FEFAA}" type="POI" name="Peak: Herðablaðið" owner="3DSpotters" lat="61.5435815" lon="-6.8887485" alt="135.45"/> 
<LandmarkLocation instanceId="{9FD76C7D-EB75-4277-AFD7-A4BAB598D380}" type="POI" name="Peak: Enni" owner="3DSpotters" lat="61.5171047" lon="-6.7977437" alt="97.65"/> 
<LandmarkLocation instanceId="{59DB822E-B8BF-47E7-AA1E-9DB4E4A4AF2C}" type="POI" name="Peak: Lírisfelli" owner="3DSpotters" lat="62.089373" lon="-7.1636702" alt="136.5"/> 
<LandmarkLocation instanceId="{675DEB74-C1C1-4E47-AB08-EC9BD6F3CC76}" type="POI" name="Peak: Støðlafjall" owner="3DSpotters" lat="62.170467" lon="-6.745967" alt="76.65"/> 
<LandmarkLocation instanceId="{0852B589-31E8-4CCE-BE47-4EE56BDAA2EC}" type="POI" name="Peak: Snæfelli" owner="3DSpotters" lat="62.262621" lon="-6.5639562" alt="136.5"/> 
<LandmarkLocation instanceId="{349914AD-FA99-4F6A-831E-A29122A632E5}" type="POI" name="Peak: Middagsfjall" owner="3DSpotters" lat="62.0306173" lon="-7.1838947" alt="111.3"/> 
<LandmarkLocation instanceId="{031F2D7D-4BCB-4CD5-B39F-269A1B3AC1E9}" type="POI" name="Village: Válur" owner="3DSpotters" lat="62.1499062" lon="-7.1515638" alt="80.85"/> 
<LandmarkLocation instanceId="{73AB97A5-299B-4392-A32C-D348A02CBEFD}" type="POI" name="Peak: Lokki" owner="3DSpotters" lat="62.2907669" lon="-6.5575279" alt="121.8"/> 
<LandmarkLocation instanceId="{99701EC8-14D1-4FB5-B562-84ED86185403}" type="POI" name="River: Tjørnudalsá" owner="3DSpotters" lat="61.7825899" lon="-6.8000258" alt="77.7"/> 
<LandmarkLocation instanceId="{1EFDA57B-2907-435E-9F6B-9754D9212650}" type="POI" name="Peak: Múlin" owner="3DSpotters" lat="62.083333" lon="-6.833333" alt="98.7"/> 
<LandmarkLocation instanceId="{A15CEE64-A728-4CD6-BC9D-67D5875B45C5}" type="POI" name="Peak: Tólvmarkaknúkur" owner="3DSpotters" lat="62.2600207" lon="-6.5202208" alt="80.85"/> 
<LandmarkLocation instanceId="{E81D2004-D3CC-47DF-A86F-9FF6EF3427AE}" type="POI" name="River: Vikará" owner="3DSpotters" lat="62.304099" lon="-6.4880289" alt="61.6"/> 
<LandmarkLocation instanceId="{F4C48D2D-CAD8-447D-A5C1-AFCA590A8DAA}" type="POI" name="Peak: Salthøvdi" owner="3DSpotters" lat="61.82006" lon="-6.8770033" alt="87.15"/> 
<LandmarkLocation instanceId="{DA4DC514-71B4-4230-B28B-33EA20E944EF}" type="POI" name="Peak: Háfjall" owner="3DSpotters" lat="62.2092487" lon="-6.5848865" alt="112.35"/> 
<LandmarkLocation instanceId="{55D1C48A-B54A-4C11-B68C-ED7DD7A57E28}" type="POI" name="Water: Krossvatn" owner="3DSpotters" lat="61.966667" lon="-6.8" alt="86.8"/> 
<LandmarkLocation instanceId="{5FFF7665-E524-42A0-8306-896B331FE0A1}" type="POI" name="Peak: Hovstúgva" owner="3DSpotters" lat="61.5146059" lon="-6.7649528" alt="97.65"/> 
<LandmarkLocation instanceId="{5E3A7347-A080-422D-AB3F-6F524805BF29}" type="POI" name="Peak: Beinisvørð" owner="3DSpotters" lat="61.4202039" lon="-6.7607557" alt="131.25"/> 
<LandmarkLocation instanceId="{35C5F280-15B0-4A30-847B-3116C25A0F19}" type="POI" name="Peak: Gjógvaráfjall" owner="3DSpotters" lat="61.4730689" lon="-6.8509637" alt="89.25"/> 
<LandmarkLocation instanceId="{CC2787CC-0719-4A86-AE9E-29F2861E53CF}" type="POI" name="Peak: Laðanfelli" owner="3DSpotters" lat="61.5122167" lon="-6.8316006" alt="80.85"/> 
<LandmarkLocation instanceId="{391FA92C-5C15-48DA-9E0F-5D1CEAFD6AB2}" type="POI" name="Peak: Borgarfelli" owner="3DSpotters" lat="62.1618" lon="-6.826417" alt="114.45"/> 
<LandmarkLocation instanceId="{7E8BFD01-952C-41BE-9492-933387ECE3F7}" type="POI" name="Peak: Eggjarók" owner="3DSpotters" lat="61.9583698" lon="-6.9116081" alt="115.5"/> 
<LandmarkLocation instanceId="{6B603E0A-6D93-4E27-82D0-F42F0A0B7B19}" type="POI" name="Peak: Keldufjall" owner="3DSpotters" lat="62.2939627" lon="-6.3456922" alt="117.6"/> 
<LandmarkLocation instanceId="{BCB927E9-732E-490D-A453-8A8608A65D55}" type="POI" name="Peak: Gásafjall" owner="3DSpotters" lat="62.3241243" lon="-6.7748307" alt="127.05"/> 
<LandmarkLocation instanceId="{FDE27C53-7E56-4297-83F3-F8EA03B59D22}" type="POI" name="Peak: Knútur" owner="3DSpotters" lat="61.7681766" lon="-6.8553672" alt="106.05"/> 
<LandmarkLocation instanceId="{9B2AF345-B789-4ED5-BD63-B8346BD7099C}" type="POI" name="Peak: Nestindar" owner="3DSpotters" lat="62.3504215" lon="-6.798485" alt="121.8"/> 
<LandmarkLocation instanceId="{FB0EE19E-E11D-4214-91A8-7088CF7BFE39}" type="POI" name="Peak: Borðoyarnes" owner="3DSpotters" lat="62.1735695" lon="-6.5438832" alt="73.5"/> 
<LandmarkLocation instanceId="{F8960B74-DCAF-408E-BA97-D24206E6AA78}" type="POI" name="Peak: Kunoyarnakkur" owner="3DSpotters" lat="62.3628436" lon="-6.6904901" alt="123.9"/> 
<LandmarkLocation instanceId="{6B39A679-FE31-4098-B07B-FE68E879696C}" type="POI" name="Peak: Knúkur" owner="3DSpotters" lat="61.887647" lon="-6.8449435" alt="79.8"/> 
<LandmarkLocation instanceId="{EE48DE4F-F6D3-4BFB-8EAC-7CC59AE42EA8}" type="POI" name="Water: Miðvatn" owner="3DSpotters" lat="61.4967625" lon="-6.9007625" alt="50.4"/> 
<LandmarkLocation instanceId="{C48760D4-5658-4838-9689-9A0852F4F243}" type="POI" name="Peak: Borgin" owner="3DSpotters" lat="61.5048371" lon="-6.8596405" alt="124.95"/> 
<LandmarkLocation instanceId="{CD8922EC-D5A7-4569-9543-F77521B44CF0}" type="POI" name="Peak: Tyril" owner="3DSpotters" lat="62.2027211" lon="-6.798914" alt="123.9"/> 
<LandmarkLocation instanceId="{55E5132C-E457-4AC1-B566-5168D7AF88E2}" type="POI" name="Peak: Rógvukollur" owner="3DSpotters" lat="62.0990434" lon="-7.4164715" alt="78.75"/> 
<LandmarkLocation instanceId="{217853B7-B7BC-4EAF-99DB-06FC376B3C55}" type="POI" name="Peak: Hvannafelli" owner="3DSpotters" lat="61.4935204" lon="-6.8395369" alt="119.7"/> 
<LandmarkLocation instanceId="{AC37C445-F6DD-4901-B0CD-6D9259B1D48F}" type="POI" name="River: Ærgisá" owner="3DSpotters" lat="61.75" lon="-6.783333" alt="81.9"/> 
<LandmarkLocation instanceId="{F8BD82A0-4C9F-4981-BDCE-BAC63B398D64}" type="POI" name="River: Mígandisá" owner="3DSpotters" lat="61.833333" lon="-6.666667" alt="81.2"/> 
<LandmarkLocation instanceId="{66EA7BE3-5205-4791-B6CC-A9FA388F155B}" type="POI" name="Peak: Tindur" owner="3DSpotters" lat="62.3559525" lon="-6.6018244" alt="90.3"/> 
<LandmarkLocation instanceId="{AC48892D-C1D9-4E9F-A3E4-8ACCC9B7AAEB}" type="POI" name="Peak: Múlin" owner="3DSpotters" lat="62.2457043" lon="-6.3719363" alt="90.3"/> 
<LandmarkLocation instanceId="{903556E6-6D08-42D6-99D6-B391BB6C77AA}" type="POI" name="Peak: Skúvoyarfjall" owner="3DSpotters" lat="61.7678583" lon="-6.6793833" alt="126.0"/> 
<LandmarkLocation instanceId="{AC29838A-CE00-42DA-9343-36F8789AF902}" type="POI" name="Peak: Oyrnafjall" owner="3DSpotters" lat="61.5468571" lon="-6.8511008" alt="103.95"/> 
<LandmarkLocation instanceId="{D60BEB99-3038-4D3F-BFD9-72931B409427}" type="POI" name="Peak: Ritufelli" owner="3DSpotters" lat="62.0782177" lon="-6.8956117" alt="107.1"/> 
<LandmarkLocation instanceId="{63CC39F5-AB43-4A45-9B8A-17BBD8B5AFA1}" type="POI" name="Village: Norðdepil" owner="3DSpotters" lat="62.29567" lon="-6.527047" alt="102.9"/> 
<LandmarkLocation instanceId="{9B209C21-C948-4B1D-972F-01BA3D9BE70E}" type="POI" name="Peak: Skálhøvdi" owner="3DSpotters" lat="61.829268" lon="-6.6373116" alt="126.0"/> 
<LandmarkLocation instanceId="{FC421E29-1A29-4CA3-8464-3A35499BE2F2}" type="POI" name="River: Krossdalsá" owner="3DSpotters" lat="62.3159989" lon="-6.5525489" alt="74.9"/> 
<LandmarkLocation instanceId="{64F5C37F-04A4-49ED-B7A3-7B1C1804C982}" type="POI" name="Peak: Trælanípa" owner="3DSpotters" lat="62.0211875" lon="-7.23021" alt="95.55"/> 
<LandmarkLocation instanceId="{934BF761-56AA-42B6-ACD7-C426EFC926A8}" type="POI" name="River: Marknará" owner="3DSpotters" lat="62.1" lon="-7.3" alt="57.4"/> 
<LandmarkLocation instanceId="{950AC1E4-B668-4C12-A4DF-C332490161EA}" type="POI" name="Peak: Spáafelli" owner="3DSpotters" lat="61.4258605" lon="-6.7388873" alt="81.9"/> 
<LandmarkLocation instanceId="{BA6C5636-FB6B-45F3-892C-D4652032C25E}" type="POI" name="Peak: Vágfelli" owner="3DSpotters" lat="61.4872441" lon="-6.8123596" alt="101.85"/> 
<LandmarkLocation instanceId="{9D0B6C73-9D39-4C70-81B7-1DA10EE42001}" type="POI" name="Peak: Sigatindur" owner="3DSpotters" lat="62.1983098" lon="-6.692783" alt="121.8"/> 
<LandmarkLocation instanceId="{B3E84C4B-8FCE-428F-8158-DE45D8CA4858}" type="POI" name="Peak: Spinarnir" owner="3DSpotters" lat="61.4255734" lon="-6.7474963" alt="94.5"/> 
<LandmarkLocation instanceId="{2F824526-9B0C-45F5-A238-0A43B7A61156}" type="POI" name="Peak: Knattarheyggjur" owner="3DSpotters" lat="62.1073323" lon="-7.3749264" alt="131.25"/> 
<LandmarkLocation instanceId="{89F341F2-39DC-4BB5-8A41-A8735F9F57D5}" type="POI" name="Peak: Heimarafjall" owner="3DSpotters" lat="62.3122914" lon="-6.7668782" alt="109.2"/> 
<LandmarkLocation instanceId="{A33432C3-DAF5-46BA-AC28-43E8F4F2DBAB}" type="POI" name="River: Breiðá" owner="3DSpotters" lat="61.881143" lon="-6.7387301" alt="76.3"/> 
<LandmarkLocation instanceId="{B677940E-B2B1-47EC-84CA-F1E594F51CBC}" type="POI" name="Peak: Eystfelli" owner="3DSpotters" lat="62.341542" lon="-6.2635688" alt="74.55"/> 
<LandmarkLocation instanceId="{CE031C35-7AF6-4319-A9FA-C55ED09CC908}" type="POI" name="River: Myllá" owner="3DSpotters" lat="61.5359094" lon="-6.7831043" alt="56.0"/> 
<LandmarkLocation instanceId="{575C6A32-4555-42EC-8FD4-F5C37905E093}" type="POI" name="Peak: Depilsknúkur" owner="3DSpotters" lat="62.2756387" lon="-6.5432494" alt="90.3"/> 
<LandmarkLocation instanceId="{DFD2E34B-09FF-4DFA-BF0F-61BFD01935BC}" type="POI" name="River: Deildará" owner="3DSpotters" lat="62.141333" lon="-6.9070329" alt="67.9"/> 
<LandmarkLocation instanceId="{8514DC99-B9F5-4906-BE59-0BDBC2D078EE}" type="POI" name="Peak: Høgoyggj" owner="3DSpotters" lat="61.6949571" lon="-6.7640238" alt="116.55"/> 
<LandmarkLocation instanceId="{889DEB87-64C1-4852-9459-1264E672CCDF}" type="POI" name="River: Gjógvará" owner="3DSpotters" lat="62.1490671" lon="-6.7665566" alt="63.7"/> 
<LandmarkLocation instanceId="{629518C2-C065-474C-9445-F522C5B36B3A}" type="POI" name="Peak: Klubbin" owner="3DSpotters" lat="62.1201769" lon="-7.3627947" alt="87.15"/> 
<LandmarkLocation instanceId="{21A01F1A-6C75-4D48-B11E-48F0AE5E70E2}" type="POI" name="Village: Blankskáli" owner="3DSpotters" lat="62.2333803" lon="-6.703373" alt="119.7"/> 
<LandmarkLocation instanceId="{69E931EE-6435-4A03-8570-5A50393ED8A2}" type="POI" name="Peak: Malinsfjall" owner="3DSpotters" lat="62.3445602" lon="-6.539082" alt="130.2"/> 
<LandmarkLocation instanceId="{2F957034-507E-458F-9866-E3FBCE1D28FA}" type="POI" name="River: Dalsá" owner="3DSpotters" lat="62.112567" lon="-7.4335393" alt="49.0"/> 
<LandmarkLocation instanceId="{30259058-7602-49F7-9452-BC294D5E7B94}" type="POI" name="Peak: Halgafelstindur" owner="3DSpotters" lat="62.1932" lon="-6.90465" alt="100.8"/> 
<LandmarkLocation instanceId="{96C640B3-7376-4BDC-A7F0-E61B2B3BE99C}" type="POI" name="Peak: Húsafelli" owner="3DSpotters" lat="62.0568796" lon="-7.1079414" alt="112.35"/> 
<LandmarkLocation instanceId="{BDC78A2D-A8A2-4A46-92BB-BC92D49DC542}" type="POI" name="Peak: Gøtunestindur" owner="3DSpotters" lat="62.189434" lon="-6.6483353" alt="128.1"/> 
<LandmarkLocation instanceId="{053470BE-AA11-4336-8488-02E11DE9CD93}" type="POI" name="River: Dalá" owner="3DSpotters" lat="62.3336727" lon="-6.4891855" alt="52.5"/> 
<LandmarkLocation instanceId="{A6D2120B-6442-465B-9CA4-F68C4CE7F054}" type="POI" name="Peak: Slættafjall" owner="3DSpotters" lat="62.3316727" lon="-6.7893652" alt="124.95"/> 
<LandmarkLocation instanceId="{4D790571-D305-4B2B-AFA4-4554CFE9F7E2}" type="POI" name="Water: Vatnið i Tindalið" owner="3DSpotters" lat="61.4997137" lon="-6.9146188" alt="87.5"/> 
<LandmarkLocation instanceId="{4015E5DE-FC14-491D-B82E-77320E48AF87}" type="POI" name="Peak: Nøvin" owner="3DSpotters" lat="62.2768956" lon="-6.7171612" alt="99.75"/> 
<LandmarkLocation instanceId="{69A45874-8F3B-4774-B940-649EB44A23A8}" type="POI" name="Peak: Skúvafjall" owner="3DSpotters" lat="61.970877" lon="-6.6346763" alt="113.4"/> 
<LandmarkLocation instanceId="{05C2AF45-90D1-43A1-B137-CE2C9E9CA438}" type="POI" name="Peak: Snældansfjall" owner="3DSpotters" lat="62.1050895" lon="-7.3529276" alt="77.7"/> 
<LandmarkLocation instanceId="{E0FE64F9-AD4B-4C48-A958-072CFB27E089}" type="POI" name="Water: Ryskivatn" owner="3DSpotters" lat="61.4823414" lon="-6.8826143" alt="64.4"/> 
<LandmarkLocation instanceId="{59FC760F-D068-473B-BA0C-8C6A7EE931DE}" type="POI" name="Peak: Høvdin" owner="3DSpotters" lat="61.7842122" lon="-6.8528477" alt="98.7"/> 
<LandmarkLocation instanceId="{B66D6C9D-49AD-4A40-B5D1-A23F90EDEADC}" type="POI" name="Peak: Tempilsklettur" owner="3DSpotters" lat="61.5718749" lon="-6.8972045" alt="126.0"/> 
<LandmarkLocation instanceId="{02916F9A-5529-4186-BB4A-ECC8B038AB06}" type="POI" name="River: Havaldará" owner="3DSpotters" lat="62.18322" lon="-6.817698" alt="57.4"/> 
<LandmarkLocation instanceId="{DAAE9049-63AF-4292-84F7-C7FA74BF78A9}" type="POI" name="River: Breiðá" owner="3DSpotters" lat="62.133333" lon="-6.85" alt="80.5"/> 
<LandmarkLocation instanceId="{4AC48085-B712-4EB9-AAC8-74404B4F3021}" type="POI" name="Peak: Gásafelli" owner="3DSpotters" lat="62.2027817" lon="-6.4847181" alt="82.95"/> 
<LandmarkLocation instanceId="{71C409D4-EC9A-4631-AD7A-624A5F246025}" type="POI" name="Peak: Vestfelli" owner="3DSpotters" lat="61.8042284" lon="-6.7136203" alt="111.3"/> 
<LandmarkLocation instanceId="{B69AE705-BF9C-494F-9446-6ACC7C1DF525}" type="POI" name="Peak: Fjallið Mikla" owner="3DSpotters" lat="61.527446" lon="-6.8571877" alt="127.05"/> 
<LandmarkLocation instanceId="{6D2B9C2E-D1F9-4AC0-8C34-BCFDD68C6C03}" type="POI" name="River: Myllá" owner="3DSpotters" lat="62.2922584" lon="-6.6609179" alt="77.0"/> 
<LandmarkLocation instanceId="{A6A732E7-1E6C-449D-982B-F723730E413E}" type="POI" name="Peak: Vatnfelli" owner="3DSpotters" lat="62.104433" lon="-6.70445" alt="118.65"/> 
<LandmarkLocation instanceId="{B4C37010-CC20-4049-A67B-B2F40338D213}" type="POI" name="Peak: Teigafjall" owner="3DSpotters" lat="62.3233198" lon="-6.672467" alt="108.15"/> 
<LandmarkLocation instanceId="{3DEF570B-15C3-48CD-85B5-A089D3E63A9E}" type="POI" name="Peak: Villingadalsfjall" owner="3DSpotters" lat="62.3810293" lon="-6.5561453" alt="85.05"/> 
<LandmarkLocation instanceId="{4AE0631A-CEA9-4772-8CE4-7B4270CFF57D}" type="POI" name="Island: Sumbiarfles" owner="3DSpotters" lat="61.35" lon="-6.65" alt="137.34"/> 
<LandmarkLocation instanceId="{339CBC15-9476-426B-BD70-2A49EC27D9B7}" type="POI" name="Peak: Talvborð" owner="3DSpotters" lat="62.3138814" lon="-6.4392818" alt="123.9"/> 
<LandmarkLocation instanceId="{E1CF22AF-4DD1-4D9E-B8A3-D9CACB069EC0}" type="POI" name="Peak: Nakkur" owner="3DSpotters" lat="61.5640978" lon="-6.9267416" alt="117.6"/> 
<LandmarkLocation instanceId="{12BD7E36-C4B7-492C-AC0B-317F4211CE34}" type="POI" name="River: Dalá" owner="3DSpotters" lat="62.3205216" lon="-6.9579611" alt="90.3"/> 
<LandmarkLocation instanceId="{65162E1C-F867-4E6D-8223-DC364F9E3DC8}" type="POI" name="Peak: Antinisfjall" owner="3DSpotters" lat="62.143242" lon="-7.3162738" alt="95.55"/> 
<LandmarkLocation instanceId="{EECB7053-D677-40F9-A9C9-FF3248B63614}" type="POI" name="Peak: Nónfjall" owner="3DSpotters" lat="61.5188994" lon="-6.8309465" alt="95.55"/> 
<LandmarkLocation instanceId="{71ADEFE7-D844-48C4-9604-AC3DD0A89DD6}" type="POI" name="Peak: Nónfjall" owner="3DSpotters" lat="62.0564824" lon="-7.3305593" alt="110.25"/> 
<LandmarkLocation instanceId="{FFC17304-B123-4D13-A5DA-44B0F44C168B}" type="POI" name="Peak: Gluggarnir" owner="3DSpotters" lat="61.546283" lon="-6.8930102" alt="85.05"/> 
<LandmarkLocation instanceId="{C495F526-3580-46E0-AAA5-59E9B04150E0}" type="POI" name="Peak: Heiðafjall" owner="3DSpotters" lat="61.8167933" lon="-6.6727243" alt="129.15"/> 
<LandmarkLocation instanceId="{5090BB8F-93D2-45DC-B2F9-0B3447B1118F}" type="POI" name="Peak: Jatnagarðar" owner="3DSpotters" lat="62.1125516" lon="-7.3912564" alt="87.15"/> 
<LandmarkLocation instanceId="{4907A750-2253-4DCC-80D7-0A8D78768BA9}" type="POI" name="Peak: Høgafjall" owner="3DSpotters" lat="62.0622083" lon="-7.3827347" alt="79.8"/> 
<LandmarkLocation instanceId="{67CE38BA-2DA8-4C5F-B3A6-5B6AC87FA6A2}" type="POI" name="Peak: Knúkur" owner="3DSpotters" lat="62.2053138" lon="-6.7302633" alt="91.35"/> 
<LandmarkLocation instanceId="{7E2653A1-1EDF-4987-93A8-5FD424C63AB0}" type="POI" name="Peak: Knúkur" owner="3DSpotters" lat="62.3453893" lon="-6.5995428" alt="115.5"/> 
<LandmarkLocation instanceId="{8FDA41B2-A336-4D2C-A3D7-518ACF5A2F75}" type="POI" name="Village: Slættanes" owner="3DSpotters" lat="62.1552189" lon="-7.2439552" alt="123.9"/> 
<LandmarkLocation instanceId="{3ADE92E6-1D64-4459-AE69-B74ADFA79E89}" type="POI" name="River: Vesturdalsá" owner="3DSpotters" lat="62.2186175" lon="-6.9149028" alt="74.2"/> 
<LandmarkLocation instanceId="{BF90E799-5C44-4239-BB36-54B94A70E0CA}" type="POI" name="Peak: Húsafelli" owner="3DSpotters" lat="62.2512" lon="-6.79445" alt="92.4"/> 
<LandmarkLocation instanceId="{8194F3A6-BE5E-43EA-959E-C82C42F104C5}" type="POI" name="Peak: Kirkjubøkambur" owner="3DSpotters" lat="61.9547979" lon="-6.7787464" alt="92.4"/> 
<LandmarkLocation instanceId="{96148BF1-A29F-4F14-A717-E31D8B179E2B}" type="POI" name="Peak: Myrkjanoyrarfjall" owner="3DSpotters" lat="62.2479563" lon="-6.562598" alt="92.4"/> 
<LandmarkLocation instanceId="{C97EB372-B029-45C0-9B28-FF5F4E2F7538}" type="POI" name="Peak: Berinartindur" owner="3DSpotters" lat="62.0945788" lon="-7.3849721" alt="108.15"/> 
<LandmarkLocation instanceId="{BEDA8304-DDD9-4EB4-B838-7799FB56D8DC}" type="POI" name="River: Stórá" owner="3DSpotters" lat="61.8816141" lon="-6.9344866" alt="74.2"/> 
<LandmarkLocation instanceId="{4FC852F8-7215-4433-B120-D6A20E8DF0D8}" type="POI" name="Peak: Klettarnir" owner="3DSpotters" lat="61.7789711" lon="-6.8380125" alt="80.85"/> 
<LandmarkLocation instanceId="{1BBDA4A6-E1C5-481E-93DC-CCB037C88DC8}" type="POI" name="Peak: Glyvraberg" owner="3DSpotters" lat="61.6287541" lon="-6.9876622" alt="77.7"/> 
<LandmarkLocation instanceId="{B7903293-2C86-4396-83D1-9E908B6E9403}" type="POI" name="Peak: Nakkur" owner="3DSpotters" lat="61.755533" lon="-6.6808281" alt="97.65"/> 
<LandmarkLocation instanceId="{5E4C59FC-1FDE-4452-92F6-D3C116E7FA03}" type="POI" name="Peak: Kvívíksskoranøva" owner="3DSpotters" lat="62.0682158" lon="-7.4037929" alt="78.75"/> 
<LandmarkLocation instanceId="{7D4ABDB8-A415-4DA4-B109-8912365830FB}" type="POI" name="Peak: Reyðafelstindur" owner="3DSpotters" lat="62.1743689" lon="-6.8621367" alt="74.55"/> 
<LandmarkLocation instanceId="{CF26A379-C660-4393-B623-30AE33AC8DD4}" type="POI" name="Peak: Skorin" owner="3DSpotters" lat="61.7539071" lon="-6.6798294" alt="86.1"/> 
<LandmarkLocation instanceId="{6E060D30-93BB-4C7D-8F68-DB6E1E27CFD1}" type="POI" name="River: Tungá" owner="3DSpotters" lat="61.9056703" lon="-6.8340352" alt="70.0"/> 
<LandmarkLocation instanceId="{97A735BA-B696-4C22-96C3-6CC062351BBD}" type="POI" name="Peak: Vørlufjall" owner="3DSpotters" lat="62.1365307" lon="-6.9275915" alt="129.15"/> 
<LandmarkLocation instanceId="{81A5E3C4-E163-4D6D-ABA3-DA8AC1BC5DF3}" type="POI" name="River: Sandá" owner="3DSpotters" lat="62.1595572" lon="-6.8893647" alt="71.4"/> 
<LandmarkLocation instanceId="{4EB5B702-217D-42AB-82DE-3ADF1D6BD7B0}" type="POI" name="Peak: Miðafelli" owner="3DSpotters" lat="62.162506" lon="-6.7121597" alt="119.7"/> 
<LandmarkLocation instanceId="{3482871C-6D40-4731-B6BC-D7AC414E623B}" type="POI" name="River: Marknará" owner="3DSpotters" lat="61.8918832" lon="-6.7747626" alt="62.3"/> 
<LandmarkLocation instanceId="{6A1EA17B-803F-4CD5-A613-E2C004510369}" type="POI" name="Peak: Skornasaklettur" owner="3DSpotters" lat="61.5690828" lon="-6.8247198" alt="124.95"/> 
<LandmarkLocation instanceId="{CEA329E9-AAC0-4CFB-8310-8106C081C04F}" type="POI" name="River: Skálsá" owner="3DSpotters" lat="61.8904364" lon="-6.7747721" alt="77.0"/> 
<LandmarkLocation instanceId="{017A0685-3311-4703-8B6A-4A8C9B77AC9A}" type="POI" name="River: Skúvadalsá" owner="3DSpotters" lat="62.1861922" lon="-6.496542" alt="77.7"/> 
<LandmarkLocation instanceId="{2494EE4E-06D3-4288-BCC5-97D066C819DB}" type="POI" name="Peak: Nakkur" owner="3DSpotters" lat="61.6435403" lon="-6.9788008" alt="96.6"/> 
<LandmarkLocation instanceId="{00FDFDA4-8399-4D79-B415-D5AE066C30EC}" type="POI" name="River: Skerá" owner="3DSpotters" lat="61.7597551" lon="-6.7256001" alt="49.0"/> 
<LandmarkLocation instanceId="{401ABEAE-0FD6-4812-BA85-F6D96B4153DF}" type="POI" name="Village: Oyrareingir" owner="3DSpotters" lat="62.0996612" lon="-6.9512567" alt="93.45"/> 
<LandmarkLocation instanceId="{F15A78ED-3B2E-43C6-A275-2BACC737A878}" type="POI" name="Peak: Múlatindur" owner="3DSpotters" lat="62.23535" lon="-6.90265" alt="81.9"/> 
<LandmarkLocation instanceId="{0793BF54-8F1F-4F20-98E6-D585D88717F3}" type="POI" name="Peak: Malinstindur" owner="3DSpotters" lat="62.07703" lon="-7.1275261" alt="111.3"/> 
<LandmarkLocation instanceId="{C011987C-7999-4AB3-9378-791AE2991705}" type="POI" name="Peak: Fýramarkaknúkur" owner="3DSpotters" lat="62.2399389" lon="-6.5499842" alt="132.3"/> 
<LandmarkLocation instanceId="{A6C43752-EE4B-4228-9688-33C4876EF0BA}" type="POI" name="River: Botnsá" owner="3DSpotters" lat="61.7668184" lon="-6.8007315" alt="74.2"/> 
<LandmarkLocation instanceId="{D2C3FF68-8B3F-437B-947F-53C16C28A7B6}" type="POI" name="Peak: Kjølur" owner="3DSpotters" lat="62.2321761" lon="-6.5703286" alt="89.25"/> 
<LandmarkLocation instanceId="{BB497F47-4547-4A69-92D8-1EDF24302E23}" type="POI" name="Peak: Lambareyn" owner="3DSpotters" lat="62.1508877" lon="-6.6741593" alt="136.5"/> 
<LandmarkLocation instanceId="{E4493E4E-DB5C-4248-8464-74065D9BEEDE}" type="POI" name="Peak: Grímstaðfjall" owner="3DSpotters" lat="62.1464982" lon="-7.2992618" alt="77.7"/> 
<LandmarkLocation instanceId="{C047E769-065B-45D4-B530-C13156EF8C88}" type="POI" name="Village: Kolbeinagjógv" owner="3DSpotters" lat="62.1093293" lon="-6.7891679" alt="115.5"/> 
<LandmarkLocation instanceId="{65866B40-E47A-41D7-B8BC-E81BA42DE13D}" type="POI" name="Peak: Froðbiarkambur" owner="3DSpotters" lat="61.5699231" lon="-6.7909074" alt="76.65"/> 
<LandmarkLocation instanceId="{6E65A099-3EFF-4E5C-BF9D-E888C0DDFE45}" type="POI" name="Village: Signabøur" owner="3DSpotters" lat="62.0966606" lon="-6.9227618" alt="85.05"/> 
<LandmarkLocation instanceId="{9A1D5A11-0689-4B0C-98FD-F4DD7006AB1C}" type="POI" name="Peak: Gleðin" owner="3DSpotters" lat="61.9044414" lon="-6.9374541" alt="78.75"/> 
<LandmarkLocation instanceId="{9D0A6463-1283-424B-918F-E423C0CDB37D}" type="POI" name="Peak: Árnafjall" owner="3DSpotters" lat="62.1313875" lon="-7.436057" alt="122.85"/> 
<LandmarkLocation instanceId="{BF92BE55-D126-40F9-8205-AD0ED624B893}" type="POI" name="Village: Norðtoftir" owner="3DSpotters" lat="62.2754871" lon="-6.5156844" alt="116.55"/> 
<LandmarkLocation instanceId="{4D0A4D5D-9236-4C78-85FE-421B33E10561}" type="POI" name="Peak: Gásafelli" owner="3DSpotters" lat="62.095826" lon="-7.1858827" alt="80.85"/> 
<LandmarkLocation instanceId="{018D7AE2-47BC-43C2-BF86-2F3F22477F84}" type="POI" name="Water: Gásdalsvatn" owner="3DSpotters" lat="61.7697283" lon="-6.6999069" alt="72.8"/> 
<LandmarkLocation instanceId="{91998AD1-43D3-4830-A218-A4DC64679294}" type="POI" name="Peak: Kambur" owner="3DSpotters" lat="62.1441734" lon="-6.8157061" alt="131.25"/> 
<LandmarkLocation instanceId="{8C892EEA-EFB4-41DE-9065-EC4D35615B47}" type="POI" name="Peak: Dyllan" owner="3DSpotters" lat="62.1131126" lon="-6.9448037" alt="123.9"/> 
<LandmarkLocation instanceId="{F7C34136-B5D3-4A85-BA48-6930EFC3B6A4}" type="POI" name="Peak: Tunnafjall" owner="3DSpotters" lat="62.3141152" lon="-6.5145055" alt="100.8"/> 
<LandmarkLocation instanceId="{E75B49E1-BF07-4CF0-BDB5-A0377BA9B54E}" type="POI" name="River: Tungáir" owner="3DSpotters" lat="62.1158152" lon="-6.816416" alt="81.9"/> 
<LandmarkLocation instanceId="{C214226E-822C-4C05-957F-660CB1BB8AB9}" type="POI" name="Peak: Ritafjall" owner="3DSpotters" lat="62.2138882" lon="-6.7520779" alt="131.25"/> 
<LandmarkLocation instanceId="{75C801CC-3272-4C97-8A32-0C36F2FBECA4}" type="POI" name="Peak: Rávan" owner="3DSpotters" lat="61.4500743" lon="-6.8009036" alt="76.65"/> 
<LandmarkLocation instanceId="{80092FED-25D2-4A4B-91B4-EAA457CCF3EA}" type="POI" name="Village: Norðskáli" owner="3DSpotters" lat="62.2192052" lon="-7.0104449" alt="124.95"/> 
<LandmarkLocation instanceId="{6586B7E8-9D33-43BC-A7CF-91815875C9DA}" type="POI" name="Village: Morskranes" owner="3DSpotters" lat="62.1297647" lon="-6.839913" alt="121.8"/> 
<LandmarkLocation instanceId="{25C0C360-D3EF-4A8A-A724-EE36079D2B5D}" type="POI" name="Peak: Rútarfelli" owner="3DSpotters" lat="61.4513247" lon="-6.8136007" alt="107.1"/> 
<LandmarkLocation instanceId="{EBDA0DA6-52B2-48B8-B1D2-BDE4C2E5EF0E}" type="POI" name="Peak: Borgarknappur" owner="3DSpotters" lat="61.5034914" lon="-6.8452881" alt="109.2"/> 
<LandmarkLocation instanceId="{4881DF79-F98A-4F49-87A5-CE93DB7D454A}" type="POI" name="Peak: Borgin" owner="3DSpotters" lat="61.6446283" lon="-6.9239638" alt="88.2"/> 
<LandmarkLocation instanceId="{3C9385EE-B7F5-482A-B7F7-BCDDF9CD63AB}" type="POI" name="Peak: Eysturhøvdi" owner="3DSpotters" lat="62.2887923" lon="-6.2893191" alt="106.05"/> 
<LandmarkLocation instanceId="{9A0E6F96-2FB8-4827-AB48-8E9883F348B1}" type="POI" name="Peak: Hádegisfjall" owner="3DSpotters" lat="62.353437" lon="-6.7872458" alt="135.45"/> 
<LandmarkLocation instanceId="{910ABFD4-7E3D-4E23-8345-6884E12CB396}" type="POI" name="Peak: Kolheyggjur" owner="3DSpotters" lat="61.5145877" lon="-6.7805041" alt="78.75"/> 
<LandmarkLocation instanceId="{6A1AB31C-282A-4DE3-B21E-9F49D4E2454F}" type="POI" name="Peak: Lambaklettur" owner="3DSpotters" lat="61.4048928" lon="-6.6868669" alt="109.2"/> 
<LandmarkLocation instanceId="{094651E4-4530-458D-8B0C-54A387E63922}" type="POI" name="Peak: Borgarin" owner="3DSpotters" lat="62.362083" lon="-6.8111593" alt="93.45"/> 
<LandmarkLocation instanceId="{6E09EAD4-76D5-44C2-A21D-08666C5652E5}" type="POI" name="Peak: Middagsfjall" owner="3DSpotters" lat="62.31065" lon="-6.94535" alt="88.2"/> 
<LandmarkLocation instanceId="{0B3317FD-BA3C-455B-8FD4-7DD8B865E80E}" type="POI" name="Peak: Urðafjall" owner="3DSpotters" lat="62.2944077" lon="-6.6398334" alt="123.9"/> 
<LandmarkLocation instanceId="{C06667E4-7A2D-468E-BB0C-596C134C7649}" type="POI" name="Peak: Sandfelli" owner="3DSpotters" lat="62.1998815" lon="-6.9333084" alt="74.55"/> 
<LandmarkLocation instanceId="{06233D7A-597F-476A-AF70-791A922ADC48}" type="POI" name="Peak: Lokkafelli" owner="3DSpotters" lat="62.2128" lon="-6.94225" alt="90.3"/> 
<LandmarkLocation instanceId="{0C966296-B20F-4E76-AC22-C9459DD35650}" type="POI" name="Village: Oyrarbakki" owner="3DSpotters" lat="62.202568" lon="-6.9971948" alt="96.6"/> 
<LandmarkLocation instanceId="{784A480C-8583-4FDE-BE00-A401AFA85313}" type="POI" name="Peak: Stórafjall" owner="3DSpotters" lat="61.7969691" lon="-6.6901847" alt="123.9"/> 
<LandmarkLocation instanceId="{EF7F64D0-2409-48D6-B868-C6B90AC1D630}" type="POI" name="River: Torvadalsá" owner="3DSpotters" lat="62.1957507" lon="-6.5165351" alt="86.8"/> 
<LandmarkLocation instanceId="{FC5A0D16-31F4-4D29-A75E-62DAE392F0CF}" type="POI" name="Peak: Slætnatindur" owner="3DSpotters" lat="62.2488" lon="-6.84" alt="131.25"/> 
<LandmarkLocation instanceId="{DB4FB713-46FB-472E-8B8F-9A741BD67EE9}" type="POI" name="Peak: Lokkanøv" owner="3DSpotters" lat="62.2999971" lon="-6.5333325" alt="93.45"/> 
<LandmarkLocation instanceId="{46E25F9A-2032-4A09-AB86-CA69CA88C901}" type="POI" name="Peak: Múlin" owner="3DSpotters" lat="61.9647129" lon="-6.9172657" alt="111.3"/> 
<LandmarkLocation instanceId="{029D2828-948B-4274-9F85-DA749F4CAB8F}" type="POI" name="Village: Skarð" owner="3DSpotters" lat="62.3239518" lon="-6.6484829" alt="73.5"/> 
<LandmarkLocation instanceId="{CE82C05E-BF9F-402A-A1C5-B2943EAFB7CB}" type="POI" name="Peak: Krúnufjall" owner="3DSpotters" lat="62.2652169" lon="-6.5020696" alt="98.7"/> 
<LandmarkLocation instanceId="{9AFC2A35-871A-47EF-A85A-21E851F24542}" type="POI" name="Village: Nesvík" owner="3DSpotters" lat="62.2146052" lon="-7.0172303" alt="88.2"/> 
<LandmarkLocation instanceId="{A37338A0-057D-4A53-B1E2-0E653D975BDF}" type="POI" name="Peak: Sornfelli" owner="3DSpotters" lat="62.0687736" lon="-6.967036" alt="100.8"/> 
<LandmarkLocation instanceId="{B7351DCF-6679-4C96-91C1-7A206FC660D6}" type="POI" name="Peak: Klubbin" owner="3DSpotters" lat="62.3394224" lon="-6.3213793" alt="109.2"/> 
<LandmarkLocation instanceId="{C95126F8-2A02-427D-A4C3-3E6A8C5003FE}" type="POI" name="Peak: Knúkur" owner="3DSpotters" lat="62.208931" lon="-6.9436968" alt="86.1"/> 
<LandmarkLocation instanceId="{4ED8A1CB-0DC2-420E-8F2D-CF326AC115B6}" type="POI" name="Peak: Havnartindur" owner="3DSpotters" lat="62.3409063" lon="-6.6891601" alt="86.1"/> 
<LandmarkLocation instanceId="{DC5F7CBA-6BF1-4699-BF9B-F821CA380FF1}" type="POI" name="Peak: Ravnsfjall" owner="3DSpotters" lat="62.033333" lon="-7.166667" alt="107.1"/> 
<LandmarkLocation instanceId="{5CCE992A-E535-4394-98AE-C87017E26F7B}" type="POI" name="Water: Sørvágsvatn" owner="3DSpotters" lat="62.0469978" lon="-7.2307346" alt="70.7"/> 
<LandmarkLocation instanceId="{B7408422-6D54-4BEF-8711-40B9F5C507C3}" type="POI" name="Peak: Prestfjall" owner="3DSpotters" lat="61.5740675" lon="-6.9514142" alt="90.3"/> 
<LandmarkLocation instanceId="{27A54A54-9B30-41B9-8BE4-5B5A5B09E759}" type="POI" name="Peak: Stórafjall" owner="3DSpotters" lat="62.1549" lon="-6.728383" alt="127.05"/> 
<LandmarkLocation instanceId="{728A155A-CE29-4097-AC3D-36626DF55744}" type="POI" name="River: Tvífaldará" owner="3DSpotters" lat="61.8128755" lon="-6.771891" alt="72.1"/> 
<LandmarkLocation instanceId="{E4797580-B004-4672-8AAD-B7D9BEB8B20D}" type="POI" name="Peak: Endin" owner="3DSpotters" lat="61.8843828" lon="-6.9076478" alt="121.8"/> 
<LandmarkLocation instanceId="{5911C0EE-7F5E-4BDE-8832-7A055269A020}" type="POI" name="Peak: Heldarstindur" owner="3DSpotters" lat="62.0829442" lon="-7.1031786" alt="113.4"/> 
<LandmarkLocation instanceId="{0F954848-595F-4C11-9512-B79F1A2357BB}" type="POI" name="Peak: Heinanøva" owner="3DSpotters" lat="62.12276" lon="-7.4516444" alt="120.75"/> 
<LandmarkLocation instanceId="{F9C74DF2-741C-4DD1-98C9-86EFFBB1438C}" type="POI" name="River: Árdalsá" owner="3DSpotters" lat="61.8822698" lon="-6.7388168" alt="63.7"/> 
<LandmarkLocation instanceId="{84AFE5D9-BC35-4143-8D20-ED65873ADC17}" type="POI" name="Peak: Gásafelli" owner="3DSpotters" lat="62.1097368" lon="-6.654875" alt="78.75"/> 
<LandmarkLocation instanceId="{3CFA8486-CE3F-4352-B7C4-0741EA763A16}" type="POI" name="River: Urðará" owner="3DSpotters" lat="62.1299795" lon="-6.8055195" alt="66.5"/> 
<LandmarkLocation instanceId="{CBB5CF8C-AAB0-4663-86EC-6188345CC41F}" type="POI" name="River: Ærgisá" owner="3DSpotters" lat="62.283333" lon="-7.033333" alt="84.0"/> 
<LandmarkLocation instanceId="{E849016F-D6B3-49C2-84AB-EE6A939A0884}" type="POI" name="River: Klívsdalsá" owner="3DSpotters" lat="62.3418127" lon="-6.5881723" alt="66.5"/> 
<LandmarkLocation instanceId="{8B70DF64-2A75-4546-83D4-EC59672688DD}" type="POI" name="Peak: Árnadalstindur" owner="3DSpotters" lat="62.1332279" lon="-6.9570919" alt="124.95"/> 
<LandmarkLocation instanceId="{871EBBC4-9465-4C5C-81F6-586B00BBB382}" type="POI" name="Peak: Hálgafelli" owner="3DSpotters" lat="62.2186038" lon="-6.6064926" alt="130.2"/> 
<LandmarkLocation instanceId="{F2318962-2A8C-4C7C-8AC0-A2FA139C2343}" type="POI" name="Peak: Búrhella" owner="3DSpotters" lat="62.2500802" lon="-6.4468036" alt="73.5"/> 
<LandmarkLocation instanceId="{B1E666E2-AE79-4513-BD18-071F9ED49184}" type="POI" name="Peak: Á Kletti" owner="3DSpotters" lat="61.6857046" lon="-6.7460699" alt="103.95"/> 
<LandmarkLocation instanceId="{51E93725-61F7-4259-AF45-2889411BCB8F}" type="POI" name="Peak: Knúkur" owner="3DSpotters" lat="62.103383" lon="-7.581783" alt="77.7"/> 
<LandmarkLocation instanceId="{758453A6-AB34-45D9-B762-26A57170E215}" type="POI" name="Peak: Dalsnípa" owner="3DSpotters" lat="62.033333" lon="-6.966667" alt="73.5"/> 
<LandmarkLocation instanceId="{DD793A15-7A0C-4F13-ACCE-57D783A498D6}" type="POI" name="Peak: Kneysurin" owner="3DSpotters" lat="61.8700869" lon="-6.9021684" alt="128.1"/> 
<LandmarkLocation instanceId="{78CE7EB9-7569-4585-BC0F-8CC6852BB2ED}" type="POI" name="Peak: Heðinsskorarfjall" owner="3DSpotters" lat="62.099183" lon="-7.575283" alt="74.55"/> 
<LandmarkLocation instanceId="{BA1EBA76-74CA-447A-BDE6-538F727CC519}" type="POI" name="Peak: Breiðistíggjur" owner="3DSpotters" lat="62.0819235" lon="-7.1202242" alt="93.45"/> 
<LandmarkLocation instanceId="{75679686-926A-4374-8CE9-F415009A50D8}" type="POI" name="Water: Hvilvíkinnavatn" owner="3DSpotters" lat="62.1187668" lon="-7.3572612" alt="84.7"/> 
<LandmarkLocation instanceId="{4BDB870E-9065-4694-944A-630BD3CC1629}" type="POI" name="Peak: Siglifelli" owner="3DSpotters" lat="61.4433249" lon="-6.7566821" alt="135.45"/> 
<LandmarkLocation instanceId="{821BC929-D646-4190-BD42-D402096E200C}" type="POI" name="River: Áin Svarta" owner="3DSpotters" lat="62.133333" lon="-6.866667" alt="65.1"/> 
<LandmarkLocation instanceId="{CF75AFBB-4CF0-488B-A7CE-FDFDFDA80D3C}" type="POI" name="Peak: Nakkur" owner="3DSpotters" lat="61.5539234" lon="-6.7424908" alt="105.0"/> 
<LandmarkLocation instanceId="{58236B90-C3A3-4F26-B221-B55C10D60A9C}" type="POI" name="River: Svíná" owner="3DSpotters" lat="62.233333" lon="-7.0" alt="79.1"/> 
<LandmarkLocation instanceId="{DE0342D5-597D-41B1-9219-B645DC5213FA}" type="POI" name="Monument: Kongaminnið" owner="3DSpotters" lat="62.0120789" lon="-6.7693761" alt="50.4"/> 
<LandmarkLocation instanceId="{EC56B59A-2DE4-4137-AA82-9CD0D9E4E6AE}" type="POI" name="River: Heltnará" owner="3DSpotters" lat="62.233333" lon="-6.866667" alt="85.4"/> 
<LandmarkLocation instanceId="{F1277837-11BE-4987-B19F-B5B6BD8D490C}" type="POI" name="Peak: Gríslatindur" owner="3DSpotters" lat="62.2347887" lon="-6.6794723" alt="120.75"/> 
<LandmarkLocation instanceId="{763A7F71-5A71-4275-99A6-74D71E250047}" type="POI" name="Peak: Stallur" owner="3DSpotters" lat="62.0855663" lon="-6.9619424" alt="106.05"/> 
<LandmarkLocation instanceId="{17FADA92-7B15-4A7D-813E-DBBF5BE39BC6}" type="POI" name="Peak: Tindur" owner="3DSpotters" lat="61.43126" lon="-6.7202753" alt="84.0"/> 
<LandmarkLocation instanceId="{5589A97B-A968-42AA-91F7-4D77521B5D5D}" type="POI" name="River: Skarðsskriðuá" owner="3DSpotters" lat="62.3" lon="-6.916667" alt="90.3"/> 
<LandmarkLocation instanceId="{B0ED15A0-81F8-46EC-8CA7-D70FC5817E34}" type="POI" name="Peak: Tindur" owner="3DSpotters" lat="61.4798592" lon="-6.8548648" alt="126.0"/> 
<LandmarkLocation instanceId="{B16C6710-34B2-4D64-9AA9-D9FB7C185578}" type="POI" name="Peak: Sneis" owner="3DSpotters" lat="62.2913164" lon="-6.4698065" alt="103.95"/> 
<LandmarkLocation instanceId="{81FA17D2-5DCD-4962-A83A-81316846010C}" type="POI" name="Peak: Filthatturin" owner="3DSpotters" lat="62.3192605" lon="-6.5024992" alt="135.45"/> 
<LandmarkLocation instanceId="{073872E1-DB50-4B92-A5CA-23C892C980C6}" type="POI" name="Peak: Tindur" owner="3DSpotters" lat="61.5598012" lon="-6.9279108" alt="120.75"/> 
<LandmarkLocation instanceId="{9BC35263-A14E-4D93-9D29-02556A40AF32}" type="POI" name="Peak: Botnstindur" owner="3DSpotters" lat="62.2437454" lon="-6.6920758" alt="132.3"/> 
<LandmarkLocation instanceId="{3F92904F-0E22-4E9B-AF9F-6A18F9886002}" type="POI" name="River: Dalsá" owner="3DSpotters" lat="61.583333" lon="-6.933333" alt="58.1"/> 
<LandmarkLocation instanceId="{42460FE3-8689-4B64-ABE7-ACD70D934A69}" type="POI" name="Peak: Enni" owner="3DSpotters" lat="62.2964763" lon="-6.4882481" alt="116.55"/> 
<LandmarkLocation instanceId="{AE89D790-E56C-4DB9-B163-26DDF1BABCDC}" type="POI" name="River: Litladalsá" owner="3DSpotters" lat="62.299922" lon="-6.55" alt="86.1"/> 
<LandmarkLocation instanceId="{2A341A95-85CA-429F-86D6-DE87A970A978}" type="POI" name="Peak: Pætursfjall" owner="3DSpotters" lat="61.8395443" lon="-6.7271948" alt="106.05"/> 
<LandmarkLocation instanceId="{E14FE450-AC56-4F6C-AE6F-B13F1716A207}" type="POI" name="River: Núpsá" owner="3DSpotters" lat="61.8701215" lon="-6.6828583" alt="74.2"/> 
<LandmarkLocation instanceId="{58F4B59A-3FA7-4CB0-BBA6-89555605D588}" type="POI" name="Peak: Tindur" owner="3DSpotters" lat="61.8464244" lon="-6.7443093" alt="99.75"/> 
<LandmarkLocation instanceId="{C191804D-9410-47E0-AB3C-B7B5C5425C7A}" type="POI" name="Peak: Krossur" owner="3DSpotters" lat="62.3225877" lon="-6.2864607" alt="107.1"/> 
<LandmarkLocation instanceId="{0E9EA618-EDC4-4D6E-8147-AAF5320C9220}" type="POI" name="Water: Kirkjuvatn" owner="3DSpotters" lat="61.5321955" lon="-6.9183437" alt="87.5"/> 
<LandmarkLocation instanceId="{399E5104-DE4B-481F-83BE-0DB2CA37F583}" type="POI" name="River: Fjarðará" owner="3DSpotters" lat="62.2013899" lon="-6.8573464" alt="88.2"/> 
<LandmarkLocation instanceId="{35338AC9-CCE5-4FE3-88E3-5F50665BCD29}" type="POI" name="Peak: Miðardalstindur" owner="3DSpotters" lat="62.2846094" lon="-6.7277689" alt="73.5"/> 
<LandmarkLocation instanceId="{932927EA-ADD6-4BC5-A07E-E5C3976CCA89}" type="POI" name="Peak: Uttarafjall" owner="3DSpotters" lat="61.4195045" lon="-6.7485198" alt="77.7"/> 
<LandmarkLocation instanceId="{44031045-B264-4A5D-84A3-A171BB3B5E9F}" type="POI" name="Village: Nólsoy" owner="3DSpotters" lat="62.0096416" lon="-6.6744114" alt="118.65"/> 
<LandmarkLocation instanceId="{E5E8156E-633A-4747-9B9A-D86B3324A0CE}" type="POI" name="Peak: Kúvingafjall" owner="3DSpotters" lat="62.3134209" lon="-6.6693841" alt="94.5"/> 
<LandmarkLocation instanceId="{46989AFC-78FC-4F1D-92A1-983DC7F424FC}" type="POI" name="Peak: Hólmsskorafjall" owner="3DSpotters" lat="61.4342299" lon="-6.7136656" alt="133.35"/> 
<LandmarkLocation instanceId="{A47CE745-A2FF-4261-ACEC-B00BDFE5A622}" type="POI" name="Peak: Hattardalstindur" owner="3DSpotters" lat="62.2919492" lon="-6.7376484" alt="111.3"/> 
<LandmarkLocation instanceId="{94B18255-78BC-40EA-BFC6-7997C0BCEAEA}" type="POI" name="Peak: Toftaknúkur" owner="3DSpotters" lat="62.2670658" lon="-6.5211967" alt="88.2"/> 
<LandmarkLocation instanceId="{C3814578-D69C-4F87-BCFD-AFF734E50E7F}" type="POI" name="Peak: Knúkur" owner="3DSpotters" lat="62.2622137" lon="-6.3526862" alt="121.8"/> 
<LandmarkLocation instanceId="{E0916A28-E99B-4EEB-AF51-F74A8D0D01D6}" type="POI" name="Peak: Eggjarklettur" owner="3DSpotters" lat="61.9892382" lon="-6.6526743" alt="82.95"/> 
<LandmarkLocation instanceId="{2E64B200-0DB9-4AE4-997C-14D19DBE6A00}" type="POI" name="River: Breiðá" owner="3DSpotters" lat="61.966667" lon="-6.833333" alt="60.2"/> 
<LandmarkLocation instanceId="{6CEEF776-4A3C-44BF-B8D8-FD06DDD6D43E}" type="POI" name="Peak: Borgin" owner="3DSpotters" lat="62.243617" lon="-6.785533" alt="106.05"/> 
<LandmarkLocation instanceId="{F054D4B5-DCFC-477B-BAE1-3ADD2E9F7E8C}" type="POI" name="Peak: Klubbin" owner="3DSpotters" lat="62.309436" lon="-6.7632035" alt="126.0"/> 
<LandmarkLocation instanceId="{B96217F8-3C34-4BA5-B831-D7B7BB61DBC7}" type="POI" name="Peak: Eiriksfjall" owner="3DSpotters" lat="61.8743361" lon="-6.9071769" alt="73.5"/> 
<LandmarkLocation instanceId="{DE69E384-E169-4CFB-9972-516C37D7BC05}" type="POI" name="Peak: Hæddin" owner="3DSpotters" lat="62.133517" lon="-6.711383" alt="94.5"/> 
<LandmarkLocation instanceId="{140695DD-057C-4D0B-B92B-66E598053CE1}" type="POI" name="River: Grøv" owner="3DSpotters" lat="62.1545409" lon="-7.2510926" alt="67.9"/> 
<LandmarkLocation instanceId="{69851D1B-564A-48FF-B637-1809C6A467D9}" type="POI" name="Peak: Horn" owner="3DSpotters" lat="62.3288" lon="-7.009283" alt="123.9"/> 
<LandmarkLocation instanceId="{0D3A4B01-BE7B-4B46-A536-89C3020EF4E2}" type="POI" name="Peak: Sandfelli" owner="3DSpotters" lat="62.3194554" lon="-6.9884106" alt="97.65"/> 
<LandmarkLocation instanceId="{2239816F-F179-4FA0-9430-1057B3C8B73E}" type="POI" name="Peak: Gráfelli" owner="3DSpotters" lat="62.310733" lon="-6.9987" alt="75.6"/> 
<LandmarkLocation instanceId="{1AD1CB22-8783-4DF3-87E1-E325C6B85ACA}" type="POI" name="Peak: Slættaratindur" owner="3DSpotters" lat="62.296717" lon="-7.0132" alt="100.8"/> 
<LandmarkLocation instanceId="{E39A11BE-36E3-43DD-9AFD-ED18DC8937B4}" type="POI" name="Peak: Vaðhorn" owner="3DSpotters" lat="62.278267" lon="-7.013667" alt="131.25"/> 
<LandmarkLocation instanceId="{D8836347-F947-42E0-A916-62239B25AF00}" type="POI" name="Peak: Mannsetur" owner="3DSpotters" lat="62.3101563" lon="-7.03177" alt="87.15"/> 
<LandmarkLocation instanceId="{0158FA97-19CF-4E4C-95DA-D024006B3378}" type="POI" name="Peak: Eiðiskollur" owner="3DSpotters" lat="62.318933" lon="-7.1033" alt="134.4"/> 
<LandmarkLocation instanceId="{3E2AF86C-F6F0-45E0-93B4-5C139C0A2CC9}" type="POI" name="Temple: Glyvra missiónshús" owner="3DSpotters" lat="62.1218368" lon="-6.7218478" alt="68.6"/> 
<LandmarkLocation instanceId="{E923B8EC-A331-4134-A56D-E03D56B3C396}" type="POI" name="Hotel: Hotel Klaksvik" owner="3DSpotters" lat="62.22812" lon="-6.5945998" alt="81.9"/> 
<LandmarkLocation instanceId="{730B5A25-1EFB-410E-8638-7BC201A375FA}" type="POI" name="Station: Smyril Tvøroyri" owner="3DSpotters" lat="61.5482192" lon="-6.8170571" alt="83.3"/> 
<LandmarkLocation instanceId="{1C817796-31E1-45D6-B240-44712BE1A10A}" type="POI" name="Hotel: Hotel Runavík" owner="3DSpotters" lat="62.1094778" lon="-6.7226105" alt="72.8"/> 
<LandmarkLocation instanceId="{876306E9-CD67-4939-A09D-0C92FA5B7452}" type="POI" name="Hotel: Hotel Tvøroyri" owner="3DSpotters" lat="61.5552979" lon="-6.8079252" alt="58.1"/> 
<LandmarkLocation instanceId="{78ED91A0-93B2-4962-B5B9-2D947424ACFC}" type="POI" name="Village: Norðradalur" owner="3DSpotters" lat="62.0401" lon="-6.926943" alt="98.7"/> 
<LandmarkLocation instanceId="{3B561996-B820-443A-900C-3CDB923B9A96}" type="POI" name="Village: Saksun" owner="3DSpotters" lat="62.2465585" lon="-7.1777219" alt="77.7"/> 
<LandmarkLocation instanceId="{4F40370C-F9AD-417A-8C5A-DCA5DD70EA9B}" type="POI" name="Arts_centre: Listaskálin" owner="3DSpotters" lat="62.0175433" lon="-6.7806919" alt="70.7"/> 
<LandmarkLocation instanceId="{442ACB54-EABC-4E56-ADD0-FA1DFD8178BE}" type="POI" name="Peak: Tindur" owner="3DSpotters" lat="62.1382869" lon="-7.1044567" alt="87.15"/> 
<LandmarkLocation instanceId="{6FFAFEB3-3C49-4A11-8BAB-3F43C3F3A886}" type="POI" name="Peak: Loysingarfjall" owner="3DSpotters" lat="62.1696339" lon="-7.1218209" alt="98.7"/> 
<LandmarkLocation instanceId="{38D99264-D3E2-41EA-AF4C-11FCF5F6E3B0}" type="POI" name="Peak: Mosarøkur" owner="3DSpotters" lat="62.1981761" lon="-7.1832315" alt="132.3"/> 
<LandmarkLocation instanceId="{5CF94CE6-DD18-4024-8342-FCB5ADA80FBA}" type="POI" name="Peak: Sneis" owner="3DSpotters" lat="62.1658953" lon="-7.0463214" alt="116.55"/> 
<LandmarkLocation instanceId="{FB58AB3F-9CFF-474D-BA8C-BD47158C82B0}" type="POI" name="Peak: Miðalfelli" owner="3DSpotters" lat="62.1831576" lon="-7.0918634" alt="76.65"/> 
<LandmarkLocation instanceId="{C54AEDE4-7D48-470E-B7F9-46FE7B7E91D6}" type="POI" name="Peak: Koppsenni" owner="3DSpotters" lat="62.2284656" lon="-7.2066441" alt="122.85"/> 
<LandmarkLocation instanceId="{E74FECD4-BB27-4311-8854-A417B87D80C1}" type="POI" name="Peak: Borgin" owner="3DSpotters" lat="62.2312045" lon="-7.1704733" alt="73.5"/> 
<LandmarkLocation instanceId="{1100DE3E-F474-4801-876B-D4A9B08CF422}" type="POI" name="Peak: Gívrufjall" owner="3DSpotters" lat="62.1466281" lon="-6.9948052" alt="132.3"/> 
<LandmarkLocation instanceId="{E2CED787-D729-44D2-B641-BE7BFE4AF7E7}" type="POI" name="Peak: Bollin" owner="3DSpotters" lat="62.1702103" lon="-7.0265307" alt="99.75"/> 
<LandmarkLocation instanceId="{C5D28F85-92ED-4323-AD9D-76B09A64A841}" type="POI" name="Fuel: Effo" owner="3DSpotters" lat="62.1252882" lon="-6.7561017" alt="64.4"/> 
<LandmarkLocation instanceId="{003A8468-ABAF-426A-8394-A90DEBC88FDB}" type="POI" name="Fuel: Klaksvik Effo" owner="3DSpotters" lat="62.2289089" lon="-6.5857649" alt="64.4"/> 
<LandmarkLocation instanceId="{6BA63A23-3219-488B-8121-4A1543DD1386}" type="POI" name="Peak: TungulíðfjalI" owner="3DSpotters" lat="62.0367097" lon="-6.8978041" alt="77.7"/> 
<LandmarkLocation instanceId="{ADB4883E-2AB8-45DD-A30A-C2968525AA54}" type="POI" name="Peak: Núgvan" owner="3DSpotters" lat="62.053186" lon="-6.9405815" alt="126.0"/> 
<LandmarkLocation instanceId="{B6161164-2A8A-4B4F-8CDE-2383288D43AE}" type="POI" name="Peak: Sandfelli" owner="3DSpotters" lat="62.2254302" lon="-7.0984057" alt="86.1"/> 
<LandmarkLocation instanceId="{65AA898D-B949-4B06-B742-CFB342D9231A}" type="POI" name="Peak: Hægstafjall" owner="3DSpotters" lat="62.1532982" lon="-7.1988786" alt="126.0"/> 
<LandmarkLocation instanceId="{9E543AF1-D5B0-4AD5-B159-3205FE575BB0}" type="POI" name="Peak: Svartbakstindur" owner="3DSpotters" lat="62.256467" lon="-6.997833" alt="84.0"/> 
<LandmarkLocation instanceId="{62DCC89B-3366-4CAC-9FB5-6405DECCFEAA}" type="POI" name="Peak: Høvdin" owner="3DSpotters" lat="62.2551933" lon="-7.2310228" alt="123.9"/> 
<LandmarkLocation instanceId="{AF208283-1094-4FB2-B5D0-278926714CF1}" type="POI" name="Peak: Tyril" owner="3DSpotters" lat="62.3150054" lon="-6.9203632" alt="84.0"/> 
<LandmarkLocation instanceId="{71970FAC-1171-4465-9227-E745B08D39B4}" type="POI" name="Peak: Húsafjall" owner="3DSpotters" lat="62.274217" lon="-6.9753" alt="111.3"/> 
<LandmarkLocation instanceId="{B78779AE-4488-44CB-AF24-9EFAF5754214}" type="POI" name="Peak: Húgvan" owner="3DSpotters" lat="62.2800754" lon="-7.201925" alt="100.8"/> 
<LandmarkLocation instanceId="{5CAB998D-0D67-4F31-AA84-2225BFEBA8F8}" type="POI" name="Peak: Gásafelli" owner="3DSpotters" lat="62.2598444" lon="-7.1026846" alt="129.15"/> 
<LandmarkLocation instanceId="{C6B77935-D9F8-4368-AE86-A9233397BA5A}" type="POI" name="Peak: Egilsfjall" owner="3DSpotters" lat="62.1387086" lon="-7.0883523" alt="109.2"/> 
<LandmarkLocation instanceId="{CACEBF55-D849-4803-93FD-D6652C28FDD8}" type="POI" name="Peak: Melin" owner="3DSpotters" lat="62.2657895" lon="-7.1710835" alt="122.85"/> 
<LandmarkLocation instanceId="{C600309F-865E-4F94-912A-95B2E05BCCD6}" type="POI" name="Helipad: Frooba Heliport" owner="3DSpotters" lat="61.5436929" lon="-6.7744527" alt="62.3"/> 
<LandmarkLocation instanceId="{390E9F9C-FD48-4967-A911-2E15491F2BE4}" type="POI" name="Helipad: Klaksvik Heliport" owner="3DSpotters" lat="62.2176209" lon="-6.5763003" alt="80.5"/> 
<LandmarkLocation instanceId="{7BD48938-0396-47C0-B578-212E196CAB2E}" type="POI" name="Helipad: Tórshavn/Boðanes Heliport" owner="3DSpotters" lat="62.0216464" lon="-6.7573651" alt="63.0"/> 
<LandmarkLocation instanceId="{7A4996C3-DBB7-4B3C-8D4D-0EC05019EA9C}" type="POI" name="Ferry_terminal: Hirtshals" owner="3DSpotters" lat="57.59589" lon="9.9755886" alt="75.6"/> 
<LandmarkLocation instanceId="{6F2F385C-8F92-4A83-AE7D-E270B5B04007}" type="POI" name="Post_box: Worlds largest Postbox" owner="3DSpotters" lat="61.9052216" lon="-6.8882799" alt="79.1"/> 
<LandmarkLocation instanceId="{BE9862DE-8CC6-4FCF-B2B6-043794657259}" type="POI" name="Fuel: Magnstøðin" owner="3DSpotters" lat="62.1151378" lon="-6.7233779" alt="76.3"/> 
<LandmarkLocation instanceId="{B641C4D2-A43F-4941-A6D3-1C8587DCD9B8}" type="POI" name="Car_wash: Magnstøðin á Frælsinum" owner="3DSpotters" lat="62.005009" lon="-6.7828776" alt="86.1"/> 
<LandmarkLocation instanceId="{27289B22-9832-4E23-AE51-3BD559D547D3}" type="POI" name="Peak: Trantur" owner="3DSpotters" lat="62.0947255" lon="-6.9876022" alt="119.7"/> 
<LandmarkLocation instanceId="{BB1F814D-0360-4119-BD96-F6C5EC4D9003}" type="POI" name="Peak: Líðarfjall" owner="3DSpotters" lat="61.9615236" lon="-6.6204539" alt="119.7"/> 
<LandmarkLocation instanceId="{6352D8F3-1D0B-45AC-AF21-6610AFF8A2FF}" type="POI" name="Peak: Melin" owner="3DSpotters" lat="62.1610543" lon="-7.1966722" alt="92.4"/> 
<LandmarkLocation instanceId="{981D4416-06CA-41B7-821B-77CFBA672B69}" type="POI" name="Peak: Moskursfjall" owner="3DSpotters" lat="62.1821271" lon="-7.1348366" alt="126.0"/> 
<LandmarkLocation instanceId="{BB56C0BE-0DC3-49D8-AA8A-AFFC1B61DE51}" type="POI" name="Peak: Postulakirkja" owner="3DSpotters" lat="62.1890469" lon="-7.2155129" alt="114.45"/> 
<LandmarkLocation instanceId="{7BDB3F97-2DB3-43EC-85A6-E5F5CF63EDE0}" type="POI" name="Peak: Reynið" owner="3DSpotters" lat="62.1629281" lon="-7.1624155" alt="96.6"/> 
<LandmarkLocation instanceId="{325D5E54-3C8C-4919-A054-AA221D290854}" type="POI" name="Peak: Fjallið Mikla" owner="3DSpotters" lat="61.9805631" lon="-6.9645474" alt="133.35"/> 
<LandmarkLocation instanceId="{DD01BB1E-BC36-448D-BD50-9F9FD084DD3D}" type="POI" name="Peak: Navirnar" owner="3DSpotters" lat="61.9383892" lon="-6.8697876" alt="82.95"/> 
<LandmarkLocation instanceId="{88DE879E-C2D9-4C61-B985-9D2FDEF1D750}" type="POI" name="Peak: Uppi á Oyggj" owner="3DSpotters" lat="61.9937309" lon="-6.9980004" alt="99.75"/> 
<LandmarkLocation instanceId="{F5C207D1-DCD0-4AEA-9829-BD58F5246919}" type="POI" name="Peak: Árnafjall" owner="3DSpotters" lat="62.094783" lon="-7.5524" alt="120.75"/> 
<LandmarkLocation instanceId="{F90A8E5D-BC0E-4789-921B-3D56AFF39E10}" type="POI" name="Peak: Knúkur, vestari" owner="3DSpotters" lat="62.260864" lon="-6.3801264" alt="85.05"/> 
<LandmarkLocation instanceId="{B3D0FF6A-50D0-4226-AD8C-A1E1F9AB0226}" type="POI" name="Peak: Middagur" owner="3DSpotters" lat="62.2612938" lon="-6.3387562" alt="112.35"/> 
<LandmarkLocation instanceId="{0E878615-CECD-4BEA-BB11-0C26F81B9AE8}" type="POI" name="Peak: Nakkurin (norðari)" owner="3DSpotters" lat="62.38951" lon="-6.5656709" alt="78.75"/> 
<LandmarkLocation instanceId="{5739FD6A-E04D-45DE-858E-2540F844CF7B}" type="POI" name="Peak: Nakkurin" owner="3DSpotters" lat="62.3045109" lon="-6.4174287" alt="130.2"/> 
<LandmarkLocation instanceId="{28233D37-D886-4AFD-B04A-05F0C68A1786}" type="POI" name="Peak: Oyggjarskoratindur" owner="3DSpotters" lat="62.3803729" lon="-6.5389547" alt="119.7"/> 
<LandmarkLocation instanceId="{1832370A-5FAA-4337-94EA-1FBF26232E21}" type="POI" name="Peak: Blámansfjall" owner="3DSpotters" lat="62.266917" lon="-7.00395" alt="115.5"/> 
<LandmarkLocation instanceId="{9986052A-DA48-4101-A88D-62FE1C37D3D4}" type="POI" name="Peak: Fjallið" owner="3DSpotters" lat="62.3304257" lon="-6.9702314" alt="113.4"/> 
<LandmarkLocation instanceId="{3C7A0C42-F185-4914-8FA1-EB975110D2EB}" type="POI" name="Fuel: Magn Støðin Miðvágur" owner="3DSpotters" lat="62.0481991" lon="-7.1928409" alt="82.6"/> 
<LandmarkLocation instanceId="{5CEBB421-C574-40E1-BE60-D0B07A1D24B8}" type="POI" name="Peak: Bøllufjall" owner="3DSpotters" lat="62.1423335" lon="-6.9872234" alt="74.55"/> 
<LandmarkLocation instanceId="{8BE77A02-5D4C-4DC7-AD5B-4D6B6C73F30A}" type="POI" name="Peak: Bøllufjall" owner="3DSpotters" lat="62.2032002" lon="-7.1766345" alt="105.0"/> 
<LandmarkLocation instanceId="{72F86117-C7B6-4FE3-BD0F-9ABC398D1704}" type="POI" name="Peak: Eggjarmúli" owner="3DSpotters" lat="62.2718319" lon="-7.2076879" alt="132.3"/> 
<LandmarkLocation instanceId="{7ED911C5-E3C5-480B-A82E-63F486AE3FBE}" type="POI" name="Peak: FjalIið Litla" owner="3DSpotters" lat="62.2015544" lon="-7.1360996" alt="116.55"/> 
<LandmarkLocation instanceId="{DD8A1361-0FE8-42D6-9704-DCF6EEDB1FD4}" type="POI" name="Peak: Fjallið millum Botnar" owner="3DSpotters" lat="62.059995" lon="-6.9574296" alt="124.95"/> 
<LandmarkLocation instanceId="{93B9908E-ABD0-404E-B730-A268A5FBF7FE}" type="POI" name="Peak: Fjallið" owner="3DSpotters" lat="62.0035496" lon="-6.8722252" alt="82.95"/> 
<LandmarkLocation instanceId="{C7156518-2A87-424C-A1E0-0FC3DDE3AD66}" type="POI" name="Peak: Fjallið" owner="3DSpotters" lat="62.0076945" lon="-6.8156649" alt="116.55"/> 
<LandmarkLocation instanceId="{347511BD-7F4B-42E9-9E3C-44B48D612B0D}" type="POI" name="Peak: Fjallið" owner="3DSpotters" lat="62.2803707" lon="-7.1032587" alt="98.7"/> 
<LandmarkLocation instanceId="{F766315E-1655-4138-8C95-8A6B238BFBDC}" type="POI" name="Peak: Gásafelli" owner="3DSpotters" lat="62.1375112" lon="-7.0652784" alt="73.5"/> 
<LandmarkLocation instanceId="{1DD0D3C5-85F5-4CDB-9887-AD70591E5AB7}" type="POI" name="Peak: Gívrufelli" owner="3DSpotters" lat="62.2539237" lon="-7.1506059" alt="79.8"/> 
<LandmarkLocation instanceId="{D27BB4A7-641D-4EC2-875E-4366C5D1F574}" type="POI" name="Peak: Heimariheyggjur" owner="3DSpotters" lat="62.2530933" lon="-7.2053189" alt="123.9"/> 
<LandmarkLocation instanceId="{B35AA01C-8F5C-4A20-900E-B2CF89C54F68}" type="POI" name="Peak: Heyggjurin Mikli" owner="3DSpotters" lat="62.2834248" lon="-7.1809867" alt="132.3"/> 
<LandmarkLocation instanceId="{4CAED48F-0EF9-4A8F-8969-A46D5773E3DE}" type="POI" name="Peak: Hægstafjall" owner="3DSpotters" lat="62.2845748" lon="-7.1347855" alt="122.85"/> 
<LandmarkLocation instanceId="{1C9F5858-40D4-4D10-BE7B-0119A9ACF68B}" type="POI" name="Peak: Húsareyn" owner="3DSpotters" lat="62.0233736" lon="-6.8224362" alt="107.1"/> 
<LandmarkLocation instanceId="{DDF43799-E981-43AF-AB6C-CF69BE81EFC5}" type="POI" name="Peak: Kaldbakskambur" owner="3DSpotters" lat="62.0931373" lon="-6.8619577" alt="114.45"/> 
<LandmarkLocation instanceId="{70693789-0370-4A81-B5F3-40B4B97E5AC8}" type="POI" name="Peak: Kirkjubøreyn" owner="3DSpotters" lat="61.9848478" lon="-6.8133151" alt="134.4"/> 
<LandmarkLocation instanceId="{574AC1F8-75C0-4AAC-970F-47FCEA95494C}" type="POI" name="Peak: Knúkurin" owner="3DSpotters" lat="62.2363021" lon="-7.1103548" alt="124.95"/> 
<LandmarkLocation instanceId="{4FC28CA5-60A5-46EC-AA7F-E1E39AFC9625}" type="POI" name="Peak: KonufelIi" owner="3DSpotters" lat="62.0133798" lon="-6.8991802" alt="89.25"/> 
<LandmarkLocation instanceId="{C0A7B7D1-0EE5-428B-ACF9-56919727DB0A}" type="POI" name="Peak: Lambafelli" owner="3DSpotters" lat="62.0432404" lon="-6.8708248" alt="110.25"/> 
<LandmarkLocation instanceId="{CF59E31B-8DD9-4D86-8D16-35F01070FDF3}" type="POI" name="Peak: Langafjall" owner="3DSpotters" lat="62.2403166" lon="-7.1171838" alt="94.5"/> 
<LandmarkLocation instanceId="{93861244-023E-4C29-A1D9-E8CCAD746978}" type="POI" name="Peak: Lágafjall" owner="3DSpotters" lat="62.1578684" lon="-7.0478557" alt="131.25"/> 
<LandmarkLocation instanceId="{2E4E1294-4ECF-4C52-AD0A-7F3449F13D2F}" type="POI" name="Peak: Lítlafjall" owner="3DSpotters" lat="62.0035628" lon="-6.81973" alt="130.2"/> 
<LandmarkLocation instanceId="{3A639F3E-9294-4E58-9654-0D19F56CA12B}" type="POI" name="Peak: Lómfelli" owner="3DSpotters" lat="62.2663503" lon="-7.1120163" alt="95.55"/> 
<LandmarkLocation instanceId="{BF00E80F-D285-4E95-810C-E35C8B7D9C44}" type="POI" name="Peak: Malaknúkur" owner="3DSpotters" lat="62.2253353" lon="-7.2159167" alt="134.4"/> 
<LandmarkLocation instanceId="{F77F9599-D848-4C5A-B873-4E3A52A9C363}" type="POI" name="Peak: Murufelli" owner="3DSpotters" lat="62.0263222" lon="-6.8892624" alt="91.35"/> 
<LandmarkLocation instanceId="{425CBBAD-6CF0-4487-9420-19900E620E43}" type="POI" name="Peak: Múlin" owner="3DSpotters" lat="62.1928863" lon="-7.1145614" alt="84.0"/> 
<LandmarkLocation instanceId="{EE3BAEFD-6D2A-466A-8332-78404080D5FD}" type="POI" name="Peak: Mýlingur" owner="3DSpotters" lat="62.3006855" lon="-7.2162386" alt="88.2"/> 
<LandmarkLocation instanceId="{F627A138-8E70-4A49-8CA8-1F8D53F177D1}" type="POI" name="Peak: Navirnar" owner="3DSpotters" lat="62.1588796" lon="-6.9970735" alt="123.9"/> 
<LandmarkLocation instanceId="{3757827E-E80C-4743-A526-3F4CE8E69CE4}" type="POI" name="Peak: Pætursfjall" owner="3DSpotters" lat="62.2148639" lon="-7.2049826" alt="80.85"/> 
<LandmarkLocation instanceId="{ECE082AA-C599-4162-8AF6-84632E30F9F4}" type="POI" name="Peak: Rossafelli" owner="3DSpotters" lat="62.2092709" lon="-7.055697" alt="82.95"/> 
<LandmarkLocation instanceId="{CDD5E40D-62EA-4593-BF7B-EBC19956499D}" type="POI" name="Peak: Snubburnar" owner="3DSpotters" lat="62.2930835" lon="-7.2241159" alt="124.95"/> 
<LandmarkLocation instanceId="{156E897B-561D-4CC0-8A28-EA34685178E2}" type="POI" name="Peak: StiðjafjalI" owner="3DSpotters" lat="62.0469646" lon="-6.9090866" alt="74.55"/> 
<LandmarkLocation instanceId="{2E0402F1-72B5-4AF9-B6AD-5CF158D709C6}" type="POI" name="Peak: Stígarnir" owner="3DSpotters" lat="62.1895118" lon="-7.1298846" alt="100.8"/> 
<LandmarkLocation instanceId="{DA74EC0B-34D1-4240-A8B8-DAE4697FD0B1}" type="POI" name="Peak: Sátan" owner="3DSpotters" lat="62.1134459" lon="-7.0082867" alt="111.3"/> 
<LandmarkLocation instanceId="{0A37B0CB-E214-45C7-BC48-6F7079CA5D39}" type="POI" name="Peak: Tindur" owner="3DSpotters" lat="62.1887466" lon="-7.2343451" alt="82.95"/> 
<LandmarkLocation instanceId="{D4B55BBB-890D-4C96-A9D5-47F9EED3BB1F}" type="POI" name="Peak: Tosskorarhorn" owner="3DSpotters" lat="62.2159209" lon="-7.2279546" alt="82.95"/> 
<LandmarkLocation instanceId="{ECF016B3-3378-4C71-A5A8-3A9895963443}" type="POI" name="Peak: Tvørfelli" owner="3DSpotters" lat="61.9895889" lon="-6.8411632" alt="80.85"/> 
<LandmarkLocation instanceId="{6C879A9D-5383-4919-89B5-80B0CB0D6301}" type="POI" name="Peak: Vatnfelli" owner="3DSpotters" lat="62.2633253" lon="-7.1246866" alt="103.95"/> 
<LandmarkLocation instanceId="{F31817FA-FFF7-4A38-8CAB-1984C4B12209}" type="POI" name="Peak: Vitin" owner="3DSpotters" lat="62.1667213" lon="-7.019902" alt="119.7"/> 
<LandmarkLocation instanceId="{69706076-4D94-4F01-A7F7-29E1B9292A47}" type="POI" name="Peak: Víkartindur" owner="3DSpotters" lat="62.2616973" lon="-7.1535668" alt="84.0"/> 
<LandmarkLocation instanceId="{D2B330DF-DB88-4B60-A4DA-E0D584A47BB7}" type="POI" name="Peak: Ytriheyggjur" owner="3DSpotters" lat="62.2533776" lon="-7.2134543" alt="107.1"/> 
<LandmarkLocation instanceId="{BB242596-D192-4244-B872-4CA45099F6C0}" type="POI" name="Peak: Ørvisfelli" owner="3DSpotters" lat="62.2084786" lon="-7.1572341" alt="90.3"/> 
<LandmarkLocation instanceId="{179C9494-6BF4-4546-A4D3-3E2004E788F6}" type="POI" name="Peak: Galvsskorafjall" owner="3DSpotters" lat="62.278681" lon="-6.6306355" alt="107.1"/> 
<LandmarkLocation instanceId="{2DCB7CE7-66D0-4C5C-96C7-BBD12868DD52}" type="POI" name="Peak: Klettur" owner="3DSpotters" lat="62.3486631" lon="-6.6747003" alt="126.0"/> 
<LandmarkLocation instanceId="{555E662D-BBFA-4750-B8D5-4D60E75B2E49}" type="POI" name="Peak: Klubbin" owner="3DSpotters" lat="62.3497051" lon="-6.6863135" alt="82.95"/> 
<LandmarkLocation instanceId="{2E88DF25-D1EC-47FA-B5DC-937A56CEB252}" type="POI" name="Peak: Lítlafjall" owner="3DSpotters" lat="62.2994399" lon="-6.6384467" alt="91.35"/> 
<LandmarkLocation instanceId="{AF7AE6C2-7371-473B-97F8-7484BBB38422}" type="POI" name="Peak: Middagsfjall" owner="3DSpotters" lat="62.309787" lon="-6.6506844" alt="97.65"/> 
<LandmarkLocation instanceId="{2EFBC340-9106-4B02-83CF-766238358498}" type="POI" name="Peak: Suður á Nakki" owner="3DSpotters" lat="62.2605231" lon="-6.6177766" alt="73.5"/> 
<LandmarkLocation instanceId="{4786C1FC-7A0F-4A0E-B151-3A1DAFB8CDAF}" type="POI" name="Peak: Urðafjall" owner="3DSpotters" lat="62.2898101" lon="-6.6403602" alt="106.05"/> 
<LandmarkLocation instanceId="{A9636F73-AF41-4322-8ECB-BA34AE8D7F00}" type="POI" name="Peak: Hæddin" owner="3DSpotters" lat="62.2114182" lon="-6.5142103" alt="108.15"/> 
<LandmarkLocation instanceId="{49811D76-92E6-426C-A675-79DDCDC6E547}" type="POI" name="Peak: Klakkur" owner="3DSpotters" lat="62.2357917" lon="-6.6160715" alt="78.75"/> 
<LandmarkLocation instanceId="{E9D1C84F-F1F4-46F3-A61B-21A628A91A86}" type="POI" name="Peak: Landsuðursfjall" owner="3DSpotters" lat="62.2586381" lon="-6.4854169" alt="74.55"/> 
<LandmarkLocation instanceId="{9E3A5D43-1359-4608-8B67-C7AB5C0AD878}" type="POI" name="Peak: Miðfjall" owner="3DSpotters" lat="62.1993849" lon="-6.5775987" alt="86.1"/> 
<LandmarkLocation instanceId="{F8290649-A287-46FE-AA96-B06258B18F30}" type="POI" name="Peak: Mølin" owner="3DSpotters" lat="62.3000043" lon="-6.423184" alt="110.25"/> 
<LandmarkLocation instanceId="{1AE5A9C7-BC11-4ECC-B16E-B8AC2BA6ED5E}" type="POI" name="Peak: Norðanfyri Kvíggjaskarð" owner="3DSpotters" lat="62.3070364" lon="-6.5673224" alt="123.9"/> 
<LandmarkLocation instanceId="{DBF98EB0-11B3-4D3B-A770-F0F4DBC33593}" type="POI" name="Peak: Norðanfyri Lokkaskarð" owner="3DSpotters" lat="62.2947206" lon="-6.5657658" alt="114.45"/> 
<LandmarkLocation instanceId="{C62513A0-A1C9-4037-8BBE-61C92A1593AF}" type="POI" name="Peak: Omanfyri Klivsdal" owner="3DSpotters" lat="62.3370962" lon="-6.5968425" alt="76.65"/> 
<LandmarkLocation instanceId="{A89402AD-A836-4CDC-946F-CC30ABC8DFD8}" type="POI" name="Peak: Rustartindur" owner="3DSpotters" lat="62.26205" lon="-6.82755" alt="97.65"/> 
<LandmarkLocation instanceId="{F8FC0DBA-9D43-4853-B9C4-9E1A2EBC6611}" type="POI" name="Peak: Blábjørg" owner="3DSpotters" lat="62.236367" lon="-6.862267" alt="107.1"/> 
<LandmarkLocation instanceId="{0D5934AD-6714-41E1-9522-689722CB6113}" type="POI" name="Peak: Brigðufelli" owner="3DSpotters" lat="62.10845" lon="-6.775633" alt="106.05"/> 
<LandmarkLocation instanceId="{987D25AE-614E-4BA4-9F3F-D1E35B8B2826}" type="POI" name="Peak: Dalkinsfjall" owner="3DSpotters" lat="62.254017" lon="-6.924867" alt="111.3"/> 
<LandmarkLocation instanceId="{3FF2436F-6277-465C-BAC1-BE78E597B1A4}" type="POI" name="Peak: Eystnes" owner="3DSpotters" lat="62.0582935" lon="-6.6928806" alt="131.25"/> 
<LandmarkLocation instanceId="{7EFE0C7F-F5D3-49B2-9A4E-AE36B3492F47}" type="POI" name="Peak: Fjallið" owner="3DSpotters" lat="62.1266478" lon="-6.7887579" alt="79.8"/> 
<LandmarkLocation instanceId="{717D46D9-888E-424C-AF14-DF6105A8209C}" type="POI" name="Peak: Gjógvarafjall" owner="3DSpotters" lat="62.22665" lon="-6.850917" alt="122.85"/> 
<LandmarkLocation instanceId="{7FAE8D09-4A2C-4FB5-BD7E-AAB4824A266F}" type="POI" name="Peak: Glyvrafjall" owner="3DSpotters" lat="62.118783" lon="-6.6856" alt="112.35"/> 
<LandmarkLocation instanceId="{28AE6EC6-C160-475D-B749-F664CA152DBA}" type="POI" name="Peak: Gomlumannatindur" owner="3DSpotters" lat="62.248133" lon="-6.8925" alt="107.1"/> 
<LandmarkLocation instanceId="{279A61D0-938F-4494-A571-E116E5F7738C}" type="POI" name="Peak: Hjarðardalstindur" owner="3DSpotters" lat="62.240017" lon="-6.86155" alt="100.8"/> 
<LandmarkLocation instanceId="{C9336896-7167-4E36-B33D-CBFB21E48C9F}" type="POI" name="Peak: Høganes" owner="3DSpotters" lat="62.10685" lon="-6.73775" alt="108.15"/> 
<LandmarkLocation instanceId="{52F271C1-06B8-4343-A8C3-D78BACF83BBA}" type="POI" name="Peak: Húsklond" owner="3DSpotters" lat="62.0941966" lon="-6.7308365" alt="79.8"/> 
<LandmarkLocation instanceId="{1B914047-0A27-465F-B517-72C38DB577A0}" type="POI" name="Peak: Kambur" owner="3DSpotters" lat="62.2176891" lon="-6.8364115" alt="80.85"/> 
<LandmarkLocation instanceId="{5E710DF6-9E8F-4A03-85C5-6FF79C4DF8DA}" type="POI" name="Peak: Klórarin" owner="3DSpotters" lat="62.13495" lon="-6.793817" alt="115.5"/> 
<LandmarkLocation instanceId="{A8FC1CC6-F188-46AC-AF66-E3C4DECE861D}" type="POI" name="Peak: Lítlafelli" owner="3DSpotters" lat="62.225933" lon="-6.9606" alt="85.05"/> 
<LandmarkLocation instanceId="{D3A6F5C1-2807-414C-9018-F4E6829FDC61}" type="POI" name="Peak: Miðafelli" owner="3DSpotters" lat="62.2353834" lon="-6.9746754" alt="124.95"/> 
<LandmarkLocation instanceId="{A7C9F5F2-A8A8-47A1-AD7C-6E1019BD87BF}" type="POI" name="Peak: Mjóstíggjur" owner="3DSpotters" lat="62.2554052" lon="-6.8086397" alt="123.9"/> 
<LandmarkLocation instanceId="{14070757-C5E5-42D3-A2E7-27C293735E2F}" type="POI" name="Peak: Norðanfyri Blámansfjall" owner="3DSpotters" lat="62.273533" lon="-6.999183" alt="93.45"/> 
<LandmarkLocation instanceId="{84DF85D9-3815-4E6C-9F47-2F58F94BC5B3}" type="POI" name="Peak: Norðarafjall" owner="3DSpotters" lat="62.285167" lon="-7.0677" alt="81.9"/> 
<LandmarkLocation instanceId="{EB57545D-89D9-481D-A91C-F582BD26100D}" type="POI" name="Peak: Oyndfjarðarfjall" owner="3DSpotters" lat="62.2851" lon="-6.845867" alt="90.3"/> 
<LandmarkLocation instanceId="{B10248E7-1687-4872-A86C-B726971C8E69}" type="POI" name="Peak: Róvin" owner="3DSpotters" lat="62.258683" lon="-6.781233" alt="122.85"/> 
<LandmarkLocation instanceId="{56BAB2C8-602F-430C-BA28-8D2F7DA3AB9C}" type="POI" name="Peak: Sandfelli" owner="3DSpotters" lat="62.2622282" lon="-6.8929229" alt="134.4"/> 
<LandmarkLocation instanceId="{90C97549-AA47-4AA6-999F-58984ECEE42D}" type="POI" name="Peak: Skerðingur" owner="3DSpotters" lat="62.246167" lon="-6.981333" alt="97.65"/> 
<LandmarkLocation instanceId="{2D42B2F6-2BD7-4ADC-A47E-653FAFF16E7E}" type="POI" name="Peak: Skoratindur" owner="3DSpotters" lat="62.284517" lon="-6.888467" alt="118.65"/> 
<LandmarkLocation instanceId="{F70C0B17-04D2-4EE9-AEF3-271403023453}" type="POI" name="Peak: Sunnarafjall" owner="3DSpotters" lat="62.281933" lon="-7.062033" alt="131.25"/> 
<LandmarkLocation instanceId="{2555E84C-C0F3-4EC5-ADC7-95DDF7A75768}" type="POI" name="Peak: Tindur" owner="3DSpotters" lat="62.287233" lon="-6.859183" alt="90.3"/> 
<LandmarkLocation instanceId="{FE06ACBE-F33F-4585-8785-4288BFC3C286}" type="POI" name="Peak: Vørðan" owner="3DSpotters" lat="62.072033" lon="-6.709617" alt="123.9"/> 
<LandmarkLocation instanceId="{B57F4F28-4871-48B9-8405-26CEC077F284}" type="POI" name="Peak: Eindalsfjall" owner="3DSpotters" lat="62.0871831" lon="-7.3305662" alt="92.4"/> 
<LandmarkLocation instanceId="{B7AA1144-8BFA-42BB-8BF4-68CAB8D1C633}" type="POI" name="Peak: Eysturtindur" owner="3DSpotters" lat="62.1168866" lon="-7.3978653" alt="122.85"/> 
<LandmarkLocation instanceId="{A57D658A-7340-4EE9-979A-21E2A78C3AB5}" type="POI" name="Peak: Jatnagarðar" owner="3DSpotters" lat="62.1383075" lon="-7.2793897" alt="123.9"/> 
<LandmarkLocation instanceId="{88435A38-D673-4ACA-8CB3-CF246055613D}" type="POI" name="Peak: Jógvansfjall" owner="3DSpotters" lat="62.0769846" lon="-7.1969983" alt="100.8"/> 
<LandmarkLocation instanceId="{2CF6C4EE-A1DC-42BD-9B78-239AB9D1997D}" type="POI" name="Peak: Krossafelli" owner="3DSpotters" lat="62.1155721" lon="-7.2290313" alt="126.0"/> 
<LandmarkLocation instanceId="{4E4D77C8-640E-4BAB-AC53-D2C2FE0CFF37}" type="POI" name="Peak: Krosstindur" owner="3DSpotters" lat="62.0537254" lon="-7.0945426" alt="89.25"/> 
<LandmarkLocation instanceId="{BBA9C96F-EAAE-4086-80A0-6AE53FC914E1}" type="POI" name="Peak: Ritubergsnøva" owner="3DSpotters" lat="62.0254755" lon="-7.2019013" alt="102.9"/> 
<LandmarkLocation instanceId="{19E6711A-D467-400B-B771-581CD7FA7A34}" type="POI" name="Peak: Suður á FjaIli" owner="3DSpotters" lat="62.0447639" lon="-7.2780202" alt="117.6"/> 
<LandmarkLocation instanceId="{6C6EF1E1-03D6-456A-8963-5E07C423EB91}" type="POI" name="Peak: Tungufelli" owner="3DSpotters" lat="62.1313723" lon="-7.2725819" alt="130.2"/> 
<LandmarkLocation instanceId="{B8B7D2BE-BE24-4CF2-A92C-A91A6A343716}" type="POI" name="Peak: Tungufellið Lítla" owner="3DSpotters" lat="62.1236066" lon="-7.2537151" alt="123.9"/> 
<LandmarkLocation instanceId="{E02B51EF-ABFA-4D70-9DEF-E81794862F27}" type="POI" name="Peak: Vatnsdalsfjall" owner="3DSpotters" lat="62.0933084" lon="-7.3274816" alt="134.4"/> 
<LandmarkLocation instanceId="{D99BA006-9FC0-4C78-981B-E804ECCE74FB}" type="POI" name="Peak: Vørufelli" owner="3DSpotters" lat="62.0787131" lon="-7.2910726" alt="133.35"/> 
<LandmarkLocation instanceId="{EBBCFA3E-CEA9-4418-BDC7-075AF240CF29}" type="POI" name="Peak: Knavin" owner="3DSpotters" lat="62.1028025" lon="-7.4199191" alt="133.35"/> 
<LandmarkLocation instanceId="{3E340434-A1FF-406C-8A07-D6A2E77ABFB4}" type="POI" name="Peak: Endin" owner="3DSpotters" lat="61.8566249" lon="-6.784658" alt="93.45"/> 
<LandmarkLocation instanceId="{8F9EFD9A-C96F-4C7A-829E-B8EE02644B5E}" type="POI" name="Peak: Fjallið" owner="3DSpotters" lat="61.8884402" lon="-6.8381754" alt="78.75"/> 
<LandmarkLocation instanceId="{EB7C1820-45BD-4F6E-8941-28ED2D0D43EE}" type="POI" name="Peak: Skorarnar" owner="3DSpotters" lat="61.849584" lon="-6.7687294" alt="108.15"/> 
<LandmarkLocation instanceId="{5389B6DD-8F33-485E-B146-4A46B63EF2B0}" type="POI" name="Peak: Skorin" owner="3DSpotters" lat="61.7500533" lon="-6.8219818" alt="74.55"/> 
<LandmarkLocation instanceId="{1DE29140-923F-4132-9481-5F4794E49725}" type="POI" name="Peak: Bustin" owner="3DSpotters" lat="61.5740894" lon="-6.7676201" alt="96.6"/> 
<LandmarkLocation instanceId="{091D29CE-7DCF-4C48-8B15-4A649C7E167C}" type="POI" name="Peak: Fjallið" owner="3DSpotters" lat="61.5756993" lon="-6.8319315" alt="105.0"/> 
<LandmarkLocation instanceId="{147937AA-F18F-4706-9B5F-DD34491BBF2C}" type="POI" name="Peak: Fjallið" owner="3DSpotters" lat="61.6417581" lon="-6.9544296" alt="73.5"/> 
<LandmarkLocation instanceId="{DED3D201-F563-42F3-9022-9F3ECA2D66BE}" type="POI" name="Peak: Galvurin" owner="3DSpotters" lat="61.5478966" lon="-6.9012232" alt="85.05"/> 
<LandmarkLocation instanceId="{12A5EE66-5190-43C9-ADAE-FB78DD92D35E}" type="POI" name="Peak: Høguskorar" owner="3DSpotters" lat="61.5139697" lon="-6.8081426" alt="121.8"/> 
<LandmarkLocation instanceId="{6325D5C8-A6BE-444D-B585-45638F4808C3}" type="POI" name="Peak: Høgøksl" owner="3DSpotters" lat="61.5070302" lon="-6.8802927" alt="127.05"/> 
<LandmarkLocation instanceId="{C7C30F61-AFC4-4BD3-84D9-20DDD09EBCAC}" type="POI" name="Peak: Húgvan" owner="3DSpotters" lat="61.6844854" lon="-6.7437842" alt="119.7"/> 
<LandmarkLocation instanceId="{D16ED1E2-DD38-4F71-BB72-5809BE3BCFBF}" type="POI" name="Peak: Kaguklettur" owner="3DSpotters" lat="61.5567647" lon="-6.7669949" alt="79.8"/> 
<LandmarkLocation instanceId="{CF44EFDC-6F0D-47E3-82CA-A9603C0EE568}" type="POI" name="Peak: Kambur" owner="3DSpotters" lat="61.4869703" lon="-6.7358385" alt="121.8"/> 
<LandmarkLocation instanceId="{05A8BEB3-1BDB-4BAF-BA74-95D7E67A2180}" type="POI" name="Peak: Mjóstíggjur" owner="3DSpotters" lat="61.5414307" lon="-6.8889439" alt="98.7"/> 
<LandmarkLocation instanceId="{2B9675D7-E5A9-4934-A710-E41B88A6D2A6}" type="POI" name="Peak: Rávan" owner="3DSpotters" lat="61.6330073" lon="-6.7106475" alt="95.55"/> 
<LandmarkLocation instanceId="{BDB1DC5F-0C92-44EE-BAEF-769E884CA313}" type="POI" name="Peak: Eystarafjall" owner="3DSpotters" lat="61.4160653" lon="-6.7377468" alt="123.9"/> 
<LandmarkLocation instanceId="{ADB422E5-E9A3-46EA-B352-367A12D7D9EE}" type="POI" name="Peak: Rossaklettur" owner="3DSpotters" lat="61.5757987" lon="-6.8730083" alt="113.4"/> 
<LandmarkLocation instanceId="{74B9D9C7-6F00-4EB5-BFD1-0E1976492224}" type="POI" name="Peak: Skálin" owner="3DSpotters" lat="61.4104388" lon="-6.6966248" alt="134.4"/> 
<LandmarkLocation instanceId="{B3555236-CF7D-448B-BB34-3F94E8F20B9E}" type="POI" name="Peak: Vørðan" owner="3DSpotters" lat="61.5410299" lon="-6.822239" alt="113.4"/> 
<LandmarkLocation instanceId="{51B5A240-ED47-496E-A24A-5838F843B4B9}" type="POI" name="Temple: Kirkjugrundin" owner="3DSpotters" lat="61.6850348" lon="-6.7588386" alt="67.2"/> 
<LandmarkLocation instanceId="{1BF8B78D-EAEA-4242-B24A-CC306EC31B3D}" type="POI" name="Station: Norröna (Smyril Line)" owner="3DSpotters" lat="65.2633831" lon="-14.0036358" alt="50.4"/> 
<LandmarkLocation instanceId="{A52A9BCD-58E6-4F84-89AC-29002230FE8E}" type="POI" name="Ruins: Fransatoftir" owner="3DSpotters" lat="62.0404598" lon="-6.8247474" alt="51.099999999999994"/> 
<LandmarkLocation instanceId="{1C61D9DC-EE14-4C0B-844C-0C792F92C1C8}" type="POI" name="Peak: Árndalsfjall" owner="3DSpotters" lat="62.174983" lon="-7.2115841" alt="73.5"/> 
<LandmarkLocation instanceId="{EB45AC3A-FD66-48D1-81AB-DFE556FDB498}" type="POI" name="Monument: Loysing" owner="3DSpotters" lat="61.9862346" lon="-6.7524482" alt="75.6"/> 
<LandmarkLocation instanceId="{2D2A68AE-2C62-4F4A-8366-09082C64309B}" type="POI" name="Shelter: Dupultbólið" owner="3DSpotters" lat="61.9685893" lon="-6.7457788" alt="81.9"/> 
<LandmarkLocation instanceId="{CF579068-D045-4ECB-9806-00ED681C32D0}" type="POI" name="Attraction: Stadion TB Tvøroyri" owner="3DSpotters" lat="61.562377" lon="-6.8519684" alt="58.1"/> 
<LandmarkLocation instanceId="{5D9B2F73-7A34-4DBB-BBA3-51F06DD902AA}" type="POI" name="Attraction: Footballstadium EB/Streymur" owner="3DSpotters" lat="62.1939277" lon="-7.0412217" alt="55.3"/> 
<LandmarkLocation instanceId="{CE2F450C-834F-42E7-8151-DDB33A3C3C23}" type="POI" name="Village: Argir" owner="3DSpotters" lat="61.9971969" lon="-6.7774441" alt="115.5"/> 
<LandmarkLocation instanceId="{E3380263-D5A6-4966-9342-E3561B6729CB}" type="POI" name="Attraction: Múlafossur" owner="3DSpotters" lat="62.1074743" lon="-7.4357693" alt="88.2"/> 
<LandmarkLocation instanceId="{703DE54E-B463-4141-8B52-88354392A26A}" type="POI" name="Fuel: Effo" owner="3DSpotters" lat="62.0701366" lon="-7.3257322" alt="53.2"/> 
<LandmarkLocation instanceId="{B5B1E0A8-4A49-4DBB-86D0-F4733E6AED6A}" type="POI" name="Ferry_terminal: Tórshavn" owner="3DSpotters" lat="62.0079024" lon="-6.7666734" alt="68.6"/> 
<LandmarkLocation instanceId="{CEC46157-2D03-4998-8C23-CA72403E2460}" type="POI" name="Studio: Studio Bloch" owner="3DSpotters" lat="62.0080367" lon="-6.7762673" alt="63.0"/> 
<LandmarkLocation instanceId="{67939E37-39E5-470F-A328-A5CF407D3795}" type="POI" name="Tax: TAKS" owner="3DSpotters" lat="62.00767" lon="-6.7760743" alt="81.9"/> 
<LandmarkLocation instanceId="{7B88A6EC-4161-4D4A-881F-F0AFE1FAE0B6}" type="POI" name="Legislative: Løgtingið" owner="3DSpotters" lat="62.0105591" lon="-6.7718822" alt="79.8"/> 
<LandmarkLocation instanceId="{E497F8F4-0F20-4B2D-8D08-389214811C5C}" type="POI" name="University: Ovastova" owner="3DSpotters" lat="62.0057765" lon="-6.7792693" alt="78.4"/> 
<LandmarkLocation instanceId="{E0885935-2C0E-4E8F-A917-FC546888F30D}" type="POI" name="University: Fróðskaparsetur Føroya" owner="3DSpotters" lat="62.0056263" lon="-6.7797293" alt="83.3"/> 
<LandmarkLocation instanceId="{86F4C115-B687-4659-8B10-CDA92E62DF4E}" type="POI" name="Ferry_terminal: M/F Teistin" owner="3DSpotters" lat="61.9032324" lon="-6.8781885" alt="65.1"/> 
<LandmarkLocation instanceId="{9CD4E035-97F2-4EC1-A8C5-E8709A50651E}" type="POI" name="Fuel: Magn" owner="3DSpotters" lat="62.2309559" lon="-6.5893208" alt="60.2"/> 
<LandmarkLocation instanceId="{CF279E58-320E-4A5C-83BF-F1F36A8602B5}" type="POI" name="Terminal: Heliport Check In" owner="3DSpotters" lat="62.1027078" lon="-7.6445624" alt="88.9"/> 
<LandmarkLocation instanceId="{3D894BA4-1EFA-4910-9A9E-F9E523EA9AE2}" type="POI" name="Charging_station: Skálatrøð" owner="3DSpotters" lat="62.0085557" lon="-6.7758918" alt="74.2"/> 
<LandmarkLocation instanceId="{1EA099DE-69A3-4CFB-AF4E-4C074DE5B3D0}" type="POI" name="Fuel: Effo" owner="3DSpotters" lat="62.2131436" lon="-6.7142433" alt="81.9"/> 
<LandmarkLocation instanceId="{5ECFBEA9-930D-4F3B-9586-3B956CABFAA4}" type="POI" name="Social_facility: Tjarnargarður" owner="3DSpotters" lat="62.0153056" lon="-6.7653974" alt="56.7"/> 
<LandmarkLocation instanceId="{4F54BEE4-AA33-4333-B11E-EAD94168FDAB}" type="POI" name="Treasury: Landsbanki Føroya" owner="3DSpotters" lat="61.9963887" lon="-6.7821571" alt="57.4"/> 
<LandmarkLocation instanceId="{457282B5-D84A-45EE-9CF8-FC9FE466FD2C}" type="POI" name="Fuel: Effo" owner="3DSpotters" lat="62.2287169" lon="-6.5857002" alt="88.2"/> 
<LandmarkLocation instanceId="{4CCF80DA-3BE6-4061-9EBF-1E48B1D6E05F}" type="POI" name="Village: Hoyvík" owner="3DSpotters" lat="62.0329436" lon="-6.7766308" alt="132.3"/> 
<LandmarkLocation instanceId="{6BE5AAAF-9E9D-4E4C-8AE2-37D42816EB4F}" type="POI" name="Ruins: Við Gellingarklett" owner="3DSpotters" lat="62.0348724" lon="-6.8288952" alt="62.3"/> 
<LandmarkLocation instanceId="{0A8EB310-D55A-4458-92E5-F33B2B285555}" type="POI" name="Monument: Símun á Høgabóli" owner="3DSpotters" lat="62.1148503" lon="-6.7225045" alt="55.3"/> 
<LandmarkLocation instanceId="{13577D43-51FB-471F-B998-A7180E88251B}" type="POI" name="Fuel: Effo" owner="3DSpotters" lat="61.5549921" lon="-6.8097522" alt="53.9"/> 
<LandmarkLocation instanceId="{2FD23B8A-ACF6-42B0-87AD-C2C8BCB01626}" type="POI" name="Fuel: Effo" owner="3DSpotters" lat="61.4732078" lon="-6.818227" alt="53.9"/> 
<LandmarkLocation instanceId="{2B6E2116-E33E-4007-8F38-49D0418559D7}" type="POI" name="Attraction: Curved basalt" owner="3DSpotters" lat="61.5086744" lon="-6.739871" alt="88.2"/> 
<LandmarkLocation instanceId="{CAD252BB-124D-4D50-858F-ED52D2F1BF70}" type="POI" name="Attraction: Knitted Stone" owner="3DSpotters" lat="61.835682" lon="-6.8291869" alt="56.0"/> 
<LandmarkLocation instanceId="{5CB1D76E-9E47-43D2-A86D-1F71ADE645D8}" type="POI" name="Attraction: Visit Mykines" owner="3DSpotters" lat="62.1025451" lon="-7.6449715" alt="71.4"/> 
<LandmarkLocation instanceId="{F9DDAB2D-8734-4178-AFFC-3EEB1E49A1ED}" type="POI" name="Bench: Mary's Bænk" owner="3DSpotters" lat="62.3266768" lon="-6.9415104" alt="58.8"/> 
<LandmarkLocation instanceId="{E736B105-EC04-4C06-A3B0-19D81342BAC1}" type="POI" name="Car_rental: Avis" owner="3DSpotters" lat="62.0675869" lon="-7.28054" alt="75.6"/> 
<LandmarkLocation instanceId="{4611B43F-2565-4C55-832E-A434753CBA09}" type="POI" name="Car_rental: 62ºN" owner="3DSpotters" lat="62.0676633" lon="-7.2808631" alt="91.0"/> 
<LandmarkLocation instanceId="{D81DF863-7E0A-4FEB-B955-63F7B0D7157F}" type="POI" name="University: Náttúruvísindadeildin, Fróðskaparsetur Føroya" owner="3DSpotters" lat="62.0058837" lon="-6.7726731" alt="51.8"/> 
<LandmarkLocation instanceId="{969165FA-895D-4A41-845C-D046A7D1CB2F}" type="POI" name="Charging_station: Magn við streymin" owner="3DSpotters" lat="62.2088653" lon="-6.9989953" alt="72.8"/> 
<LandmarkLocation instanceId="{9AE181F2-2320-436C-8965-ADDFE584F545}" type="POI" name="Peak: Orrtindur" owner="3DSpotters" lat="62.1217128" lon="-7.4135589" alt="78.75"/> 
<LandmarkLocation instanceId="{CF92E737-9544-4204-AF9A-92E076E76292}" type="POI" name="Archaeological_site: Gróthústangi" owner="3DSpotters" lat="62.0449592" lon="-7.2178273" alt="67.9"/> 
<LandmarkLocation instanceId="{1D9BAB2C-9326-4CFA-83B4-2DBB461FC86F}" type="POI" name="Ruins: Sawbuck" owner="3DSpotters" lat="62.2900743" lon="-7.1494762" alt="64.4"/> 
<LandmarkLocation instanceId="{A24D5B1B-C227-4EA3-A9CD-B2F6D66A133B}" type="POI" name="Temple: Soli Deo Gloria" owner="3DSpotters" lat="62.2277597" lon="-6.5910673" alt="71.4"/> 
<LandmarkLocation instanceId="{25885B60-E074-495E-AE4D-4F23FB23628D}" type="POI" name="Peak: Ásmundarstakkur" owner="3DSpotters" lat="61.6421332" lon="-6.9806633" alt="97.65"/> 
<LandmarkLocation instanceId="{C2437807-4A0E-46DF-A5D2-B5116F8FEE95}" type="POI" name="Temple: CityChurch" owner="3DSpotters" lat="62.0111532" lon="-6.7758087" alt="81.2"/> 
<LandmarkLocation instanceId="{0670A2F9-CBA4-40C0-9D26-23CC79913794}" type="POI" name="Temple: РодичиСинихКитов" owner="3DSpotters" lat="62.1030593" lon="-7.6082452" alt="53.9"/> 
<LandmarkLocation instanceId="{23D3DFE5-7AA4-4CA7-9F48-0D3DD575E58D}" type="POI" name="Temple: СоветСтарейшин" owner="3DSpotters" lat="62.1107775" lon="-7.5888879" alt="79.1"/> 
<LandmarkLocation instanceId="{17E39EA1-7573-47D8-86AF-06AA7281775C}" type="POI" name="Temple: Рут" owner="3DSpotters" lat="62.0907596" lon="-7.3135958" alt="77.7"/> 
<LandmarkLocation instanceId="{45D6DD8D-EA92-4C15-A9BF-B54CA28C8C26}" type="POI" name="Village: Kambsdalur" owner="3DSpotters" lat="62.2205556" lon="-6.8150991" alt="109.2"/> 
