<LandmarkLocation instanceId="{2dd28c80-b9f7-4c13-bb30-cc56fcc5565a}" type="POI" name="Gerlachovský štít 2655m" owner="RipPipPip" lat="49.1640357" lon="20.1340340" alt="500.0"/> 
<LandmarkLocation instanceId="{dcb1d951-01b2-4b3e-a205-263be4751013}" type="POI" name="Cubryna / Čubrina 2376m" owner="RipPipPip" lat="49.1878013" lon="20.0536809" alt="500.0"/> 
<LandmarkLocation instanceId="{79e5a85c-b9be-41c1-a6ba-b3140a86df95}" type="POI" name="Satan (N) 2421m" owner="RipPipPip" lat="49.1636370" lon="20.0522186" alt="500.0"/> 
<LandmarkLocation instanceId="{599ad805-77dd-4ca7-96e7-e1fd448564b2}" type="POI" name="Litvorový štít 2423m" owner="RipPipPip" lat="49.1710813" lon="20.1299323" alt="500.0"/> 
<LandmarkLocation instanceId="{8616a0b1-c192-4028-993b-d6d7c9ae68c8}" type="POI" name="Vysoká 2547m" owner="RipPipPip" lat="49.1730750" lon="20.0935591" alt="500.0"/> 
<LandmarkLocation instanceId="{88022706-c786-4492-84b2-76fd40f7ad99}" type="POI" name="Zadný Gerlach 2616m" owner="RipPipPip" lat="49.1662301" lon="20.1314792" alt="500.0"/> 
<LandmarkLocation instanceId="{0b88c3c9-2c5b-46e8-b614-6cc153aad11d}" type="POI" name="Mengusovský Volovec 2227m" owner="RipPipPip" lat="49.1759435" lon="20.0675358" alt="500.0"/> 
<LandmarkLocation instanceId="{c0dde15c-c7c1-48a1-bdca-da912d6f031d}" type="POI" name="Kôpky 2354m" owner="RipPipPip" lat="49.1677780" lon="20.0838890" alt="500.0"/> 
<LandmarkLocation instanceId="{4e5ff2c2-f1d1-44c7-b3f7-3f8de5fa9d1a}" type="POI" name="Gánok 2462m" owner="RipPipPip" lat="49.1743120" lon="20.1038444" alt="500.0"/> 
<LandmarkLocation instanceId="{04020743-403b-45e1-9f0e-658ad848dddc}" type="POI" name="Mięguszowiecki Szczyt Czarny / Východný Mengusovský štít 2410m" owner="RipPipPip" lat="49.1830560" lon="20.0675000" alt="500.0"/> 
<LandmarkLocation instanceId="{9dbe666f-8bc4-48b2-80d6-dcc3cbe88f7f}" type="POI" name="Volia veža / Wołowa Turnia 2373m" owner="RipPipPip" lat="49.1789015" lon="20.0751157" alt="500.0"/> 
<LandmarkLocation instanceId="{8d1b6473-4f69-4abf-a266-ad4adba6530b}" type="POI" name="Veľký Žabí štít / Żabi Szczyt Wyżni 2263m" owner="RipPipPip" lat="49.1878465" lon="20.0892494" alt="500.0"/> 
<LandmarkLocation instanceId="{e19bfb2f-79e4-4a92-b9c3-e1a1ce2ea72a}" type="POI" name="Mięguszowiecki Szczyt Pośredni / Prostredný Mengusovský štít 2393m" owner="RipPipPip" lat="49.1845389" lon="20.0627490" alt="500.0"/> 
<LandmarkLocation instanceId="{0c6be74a-33bf-4484-b874-5f3d4047ccf8}" type="POI" name="Malé Rysy / Niżnie Rysy 2430m" owner="RipPipPip" lat="49.1833905" lon="20.0880078" alt="500.0"/> 
<LandmarkLocation instanceId="{31308355-3cca-4ea5-b9f9-1b3aef877a06}" type="POI" name="Kotlový štít 2601m" owner="RipPipPip" lat="49.1619981" lon="20.1363213" alt="500.0"/> 
<LandmarkLocation instanceId="{f52901a4-0dd7-45c9-97d9-5fb2dc711339}" type="POI" name="Končistá 2537.5m" owner="RipPipPip" lat="49.1573111" lon="20.1140729" alt="500.0"/> 
<LandmarkLocation instanceId="{fe7c8162-2ca9-40ba-9b10-e73758cafc5d}" type="POI" name="Popradský Ľadový štít 2396m" owner="RipPipPip" lat="49.1659124" lon="20.1157920" alt="500.0"/> 
<LandmarkLocation instanceId="{0fa32de3-4a2e-454d-9ff7-a07c251a6012}" type="POI" name="Hrubá veža 2086m" owner="RipPipPip" lat="49.1813259" lon="20.1301403" alt="500.0"/> 
<LandmarkLocation instanceId="{b36223a8-9d9f-419a-81ab-e80bcc6b7fe4}" type="POI" name="Batizovský štít 2448m" owner="RipPipPip" lat="49.1653667" lon="20.1241414" alt="500.0"/> 
<LandmarkLocation instanceId="{015aa109-91b7-4a1a-b255-e193ca146130}" type="POI" name="Velický štít 2319m" owner="RipPipPip" lat="49.1739411" lon="20.1345904" alt="500.0"/> 
<LandmarkLocation instanceId="{e5fea373-d43a-4f83-9278-cbc14d100101}" type="POI" name="Zlobivá 2426m" owner="RipPipPip" lat="49.1701370" lon="20.1077554" alt="500.0"/> 
<LandmarkLocation instanceId="{37a19f81-8191-423e-9e01-329d6ccbe932}" type="POI" name="Snežná kopa 2327m" owner="RipPipPip" lat="49.1684975" lon="20.1117713" alt="500.0"/> 
<LandmarkLocation instanceId="{ec6bccc4-9fc1-4c51-8ced-5b6d800df09c}" type="POI" name="Malá Bašta 2288m" owner="RipPipPip" lat="49.1557957" lon="20.0575666" alt="500.0"/> 
<LandmarkLocation instanceId="{fe858167-9553-49a0-bcd9-61e99cd964fa}" type="POI" name="Predná Bašta 2374m" owner="RipPipPip" lat="49.1603668" lon="20.0550023" alt="500.0"/> 
<LandmarkLocation instanceId="{a1957f68-f433-4888-ada9-c78aca532cc5}" type="POI" name="Veľká Capia veža 2364m" owner="RipPipPip" lat="49.1668186" lon="20.0508431" alt="500.0"/> 
<LandmarkLocation instanceId="{73fe6b22-3906-45e9-a5ae-a561c29f168b}" type="POI" name="Tupá 2284m" owner="RipPipPip" lat="49.1535074" lon="20.1017938" alt="500.0"/> 
<LandmarkLocation instanceId="{2a92fdab-26a0-4c7a-8c8d-8229a61f87ab}" type="POI" name="Veľká dračia hlava 2254m" owner="RipPipPip" lat="49.1680901" lon="20.0937140" alt="500.0"/> 
<LandmarkLocation instanceId="{75a349f0-95ba-42b9-9c6d-f41214eb2ef0}" type="POI" name="Ťažký štít 2500m" owner="RipPipPip" lat="49.1737045" lon="20.0915347" alt="500.0"/> 
<LandmarkLocation instanceId="{bf328a20-d7af-4912-8721-bd73eae56d0f}" type="POI" name="Zlomisková veža 2147m" owner="RipPipPip" lat="49.1651568" lon="20.0942520" alt="500.0"/> 
<LandmarkLocation instanceId="{8fca2bc7-12ce-41ff-86c7-cdd9a1e54149}" type="POI" name="Malá Končistá 2466m" owner="RipPipPip" lat="49.1628881" lon="20.1145238" alt="500.0"/> 
<LandmarkLocation instanceId="{e6434aee-f8b1-4f7b-997c-3eabe65e17cd}" type="POI" name="Rumanov štít 2428m" owner="RipPipPip" lat="49.1728175" lon="20.1056479" alt="500.0"/> 
<LandmarkLocation instanceId="{77386383-370a-4ab9-892d-0a72b6094e61}" type="POI" name="Veža železnej brány" owner="RipPipPip" lat="49.1705887" lon="20.1143906" alt="500.0"/> 
<LandmarkLocation instanceId="{419c6ca1-576c-418b-a200-d7173056715b}" type="POI" name="Mnich 2067m" owner="RipPipPip" lat="49.1926757" lon="20.0549059" alt="500.0"/> 
<LandmarkLocation instanceId="{a09e53b6-517d-4fb2-b049-a58998a0223a}" type="POI" name="Ťažká veža 2254m" owner="RipPipPip" lat="49.1832970" lon="20.0939127" alt="500.0"/> 
<LandmarkLocation instanceId="{e33c0e3d-abc5-4cf2-ba36-08dcbae94c14}" type="POI" name="Kačacia veža 2197m" owner="RipPipPip" lat="49.1773280" lon="20.1051543" alt="500.0"/> 
<LandmarkLocation instanceId="{3cf82b40-ca84-42f1-9038-914ae7a0d431}" type="POI" name="Malý Mlynár 1973m" owner="RipPipPip" lat="49.1991126" lon="20.1018938" alt="500.0"/> 
<LandmarkLocation instanceId="{837ded03-4b57-45a8-bea5-e18c3aa92047}" type="POI" name="Dromedárov chrbát 2227m" owner="RipPipPip" lat="49.1572696" lon="20.1354169" alt="500.0"/> 
<LandmarkLocation instanceId="{307ccf1e-d344-4e80-8628-bdb96a5db21b}" type="POI" name="Lavínový štít 2606m" owner="RipPipPip" lat="49.1685033" lon="20.1306475" alt="500.0"/> 
<LandmarkLocation instanceId="{950e2c75-d274-470e-a507-e631904d73f0}" type="POI" name="štít Nad Zeleným 2130m" owner="RipPipPip" lat="49.2037994" lon="20.1357662" alt="500.0"/> 
<LandmarkLocation instanceId="{bebf7ca6-6f67-46d3-b443-404758df70e0}" type="POI" name="Rysy 2503m" owner="RipPipPip" lat="49.1793175" lon="20.0884343" alt="500.0"/> 
<LandmarkLocation instanceId="{d3ec2e8e-2939-4899-9c1e-74bfe8b4c664}" type="POI" name="Mlynár 2170m" owner="RipPipPip" lat="49.1934157" lon="20.1026067" alt="500.0"/> 
<LandmarkLocation instanceId="{b0dc5a15-23dc-4287-a8a5-8124c6ab42c9}" type="POI" name="Štôlska veža 2140m" owner="RipPipPip" lat="49.1611124" lon="20.1140589" alt="500.0"/> 
<LandmarkLocation instanceId="{873e7530-880a-4ba2-bcc8-e4ae2df4070c}" type="POI" name="Gerlachovská veža 2642m" owner="RipPipPip" lat="49.1631541" lon="20.1330908" alt="500.0"/> 
<LandmarkLocation instanceId="{f90d4e60-2a0d-4f7e-967d-ee1a2fbf67a5}" type="POI" name="Mnichowa Kopa 2090m" owner="RipPipPip" lat="49.1906428" lon="20.0522976" alt="500.0"/> 
<LandmarkLocation instanceId="{f665268d-c6dd-4612-a0d1-ca27b910b9d3}" type="POI" name="Spadowa Kopa 2252m" owner="RipPipPip" lat="49.1855554" lon="20.0872398" alt="500.0"/> 
<LandmarkLocation instanceId="{63ce77c7-c08f-4b03-add6-a14c88af87b8}" type="POI" name="Żabi Mnich 2146m" owner="RipPipPip" lat="49.1891326" lon="20.0857161" alt="500.0"/> 
<LandmarkLocation instanceId="{22ceb354-e793-474f-9698-359bc41d89e5}" type="POI" name="Tomkowa Igła 2106m" owner="RipPipPip" lat="49.1840996" lon="20.0835777" alt="500.0"/> 
<LandmarkLocation instanceId="{87aa5801-bb42-4ec6-81c2-f6e3175ac0a7}" type="POI" name="Żabi Koń 2291m" owner="RipPipPip" lat="49.1786869" lon="20.0796578" alt="500.0"/> 
<LandmarkLocation instanceId="{515c1b4a-5caf-4bee-a82c-8f7d9fc0a5fd}" type="POI" name="Żabia Turnia Mięguszowiecka 2336m" owner="RipPipPip" lat="49.1786039" lon="20.0771327" alt="500.0"/> 
<LandmarkLocation instanceId="{1fd717f8-01ef-4f01-9fae-3ed5a2005580}" type="POI" name="Bula pod Rysami 2054m" owner="RipPipPip" lat="49.1819195" lon="20.0807907" alt="500.0"/> 
<LandmarkLocation instanceId="{70aa5034-192a-4d93-a831-581cebfc94ee}" type="POI" name="Kazalnica Mięguszowiecka 2159m" owner="RipPipPip" lat="49.1851463" lon="20.0702796" alt="500.0"/> 
<LandmarkLocation instanceId="{208e3bfd-e454-49a2-86b7-478121fb2eea}" type="POI" name="Rogata Turniczka 2365m" owner="RipPipPip" lat="49.1789015" lon="20.0751157" alt="500.0"/> 
<LandmarkLocation instanceId="{2865120d-1340-4234-8883-842f366367a6}" type="POI" name="Hińczowa Turnia 2377m" owner="RipPipPip" lat="49.1809173" lon="20.0689511" alt="500.0"/> 
<LandmarkLocation instanceId="{78e46e80-344e-46c9-afad-7027dd14378f}" type="POI" name="Hińczowa Turniczka 2360m" owner="RipPipPip" lat="49.1807513" lon="20.0690814" alt="500.0"/> 
<LandmarkLocation instanceId="{33f892ff-89be-4641-9950-52e90a68193f}" type="POI" name="Chłopek 2340m" owner="RipPipPip" lat="49.1835393" lon="20.0657533" alt="500.0"/> 
<LandmarkLocation instanceId="{b2bae108-f8c6-4b74-9448-556c47bb30b3}" type="POI" name="Żabia Czuba 2079m" owner="RipPipPip" lat="49.1985009" lon="20.0862719" alt="500.0"/> 
<LandmarkLocation instanceId="{43fe239c-94aa-42a4-b425-fb1398c553f3}" type="POI" name="Niżni Żabi Szczyt 2098m" owner="RipPipPip" lat="49.1960159" lon="20.0842199" alt="500.0"/> 
<LandmarkLocation instanceId="{0703f18f-0d7c-42a8-bc0c-89bf49bec6f1}" type="POI" name="Marusarzowa Turnia 2075m" owner="RipPipPip" lat="49.1948693" lon="20.0842957" alt="500.0"/> 
<LandmarkLocation instanceId="{a52f647a-fc1a-457d-8322-edef159876c3}" type="POI" name="Owcze Turniczki 2040m" owner="RipPipPip" lat="49.1936235" lon="20.0845988" alt="500.0"/> 
<LandmarkLocation instanceId="{95cd9f42-2ea7-4f7d-9115-90e3618c2754}" type="POI" name="Apostoły 1953m" owner="RipPipPip" lat="49.1954140" lon="20.0816315" alt="500.0"/> 
<LandmarkLocation instanceId="{55cd9090-8ae4-40cb-ab9b-10bfbedd9322}" type="POI" name="Żabia Lalka 2095m" owner="RipPipPip" lat="49.1883472" lon="20.0844990" alt="500.0"/> 
<LandmarkLocation instanceId="{f3a8a948-ff00-4db7-b5bd-2d613e909b4b}" type="POI" name="Hincova veža 2370m" owner="RipPipPip" lat="49.1809698" lon="20.0688872" alt="500.0"/> 
<LandmarkLocation instanceId="{738cdf3a-e8fc-4bcd-b1dd-fbc03357f220}" type="POI" name="Rysy 2499m" owner="RipPipPip" lat="49.1795862" lon="20.0880476" alt="500.0"/> 
<LandmarkLocation instanceId="{8eac2185-8b2d-42fc-91cf-a4d854f8c266}" type="POI" name="Mięguszowiecki Szczyt Wielki / Veľký Mengusovský štít 2438m" owner="RipPipPip" lat="49.1870424" lon="20.0601811" alt="500.0"/> 
<LandmarkLocation instanceId="{f6e877c2-e93f-4dea-910d-1422bb878b15}" type="POI" name="Satan 2422m" owner="RipPipPip" lat="49.1631527" lon="20.0528304" alt="500.0"/> 
<LandmarkLocation instanceId="{a7fb8b6f-b967-4c13-b9cb-dac4d5537170}" type="POI" name="Kostolík 2262m" owner="RipPipPip" lat="49.1616247" lon="20.1242864" alt="500.0"/> 
<LandmarkLocation instanceId="{6d61a897-1991-4dc8-942f-1dda687bb9d5}" type="POI" name="Hincova kopka 2000m" owner="RipPipPip" lat="49.1711076" lon="20.0596544" alt="500.0"/> 
<LandmarkLocation instanceId="{d9376833-3938-4ada-8409-395a4aa8f646}" type="POI" name="Predná Pustá veža" owner="RipPipPip" lat="49.1814930" lon="20.1028776" alt="500.0"/> 
<LandmarkLocation instanceId="{dd9f6761-7b90-44d7-8fdd-357158b84156}" type="POI" name="Pustá stráž 1875m" owner="RipPipPip" lat="49.1808899" lon="20.1088107" alt="500.0"/> 
<LandmarkLocation instanceId="{e498ea78-7292-44f3-9a49-c45fb1fc790b}" type="POI" name="Veľká Kôpka 2354m" owner="RipPipPip" lat="49.1701520" lon="20.0834888" alt="500.0"/> 
<LandmarkLocation instanceId="{98f2d7a5-4908-41b8-b948-7ab870f09af2}" type="POI" name="Dračie pazúry" owner="RipPipPip" lat="49.1701305" lon="20.0835389" alt="500.0"/> 
<LandmarkLocation instanceId="{d532d221-180d-4c3d-9e79-0aa725be076d}" type="POI" name="Kačací štít 2401m" owner="RipPipPip" lat="49.1659777" lon="20.1202341" alt="500.0"/> 
<LandmarkLocation instanceId="{7dc62483-3718-4562-af9a-c3254afd4ba8}" type="POI" name="Kačací mních" owner="RipPipPip" lat="49.1711406" lon="20.1161063" alt="500.0"/> 
<LandmarkLocation instanceId="{6720cd8c-0ea0-453d-9072-94f29059bb54}" type="POI" name="Kozia stráž" owner="RipPipPip" lat="49.1666161" lon="20.1079738" alt="500.0"/> 
<LandmarkLocation instanceId="{b240c53c-39ab-4996-97b0-c7701496c301}" type="POI" name="Čubrinka 2310m" owner="RipPipPip" lat="49.1864332" lon="20.0532745" alt="500.0"/> 
<LandmarkLocation instanceId="{d275b57a-0e01-4379-b9f2-c6fe9716a83e}" type="POI" name="Tylkova veža" owner="RipPipPip" lat="49.1773757" lon="20.0777355" alt="500.0"/> 
<LandmarkLocation instanceId="{2895b358-7926-4073-84ff-b062d2fa1753}" type="POI" name="Veža nad kolibou" owner="RipPipPip" lat="49.1899244" lon="20.1281312" alt="500.0"/> 
<LandmarkLocation instanceId="{56c0bee0-1b09-481b-9d98-6af9575e67a4}" type="POI" name="Drúk 2395m" owner="RipPipPip" lat="49.1638650" lon="20.1145696" alt="500.0"/> 
<LandmarkLocation instanceId="{e483263c-1cd5-44e5-b9d4-ac5e204c40cf}" type="POI" name="Bielovodská veža" owner="RipPipPip" lat="49.1929336" lon="20.1100813" alt="500.0"/> 
<LandmarkLocation instanceId="{a7cfe8d8-82bf-49ce-a8dc-b0ecad725cbf}" type="POI" name="veža nad Poľanou 1804m" owner="RipPipPip" lat="49.1894056" lon="20.1304615" alt="500.0"/> 
<LandmarkLocation instanceId="{c2e4053a-27bf-402d-93e8-77f8dccd273c}" type="POI" name="Żabi Kapucyn 2138m" owner="RipPipPip" lat="49.1888897" lon="20.0853802" alt="500.0"/> 
<LandmarkLocation instanceId="{dcb47f57-8d6a-44d9-881d-700953d7d8fc}" type="POI" name="Dračí štít 2523m" owner="RipPipPip" lat="49.1709904" lon="20.0962854" alt="500.0"/> 
<LandmarkLocation instanceId="{dd994a0a-a727-4d91-86e3-effe33a8132c}" type="POI" name="Ošarpance 2348m" owner="RipPipPip" lat="49.1676923" lon="20.0994534" alt="500.0"/> 
<LandmarkLocation instanceId="{06a1abfb-7ace-457a-8395-b04d42acaa80}" type="POI" name="Čertova veža" owner="RipPipPip" lat="49.1614965" lon="20.1392537" alt="500.0"/> 
